,city,state,males,females,lat,lng,state_name,city_state,pop,murdersPerState
0,Abbeville,LA,1,0,29.9746502,-92.1342921,Louisiana,"Abbeville, Louisiana",2688,374
2,Ascension Parish,LA,1,0,30.20465845,-90.8896301065416,Louisiana,"Ascension Parish, Louisiana",107215,374
3,Avondale,LA,3,0,29.9129834,-90.2036869,Louisiana,"Avondale, Louisiana",76238,374
4,Baker,LA,1,0,30.5882429,-91.168163,Louisiana,"Baker, Louisiana",27115,374
5,Baton Rouge,LA,46,8,30.4507462,-91.154551,Louisiana,"Baton Rouge, Louisiana",229493,374
6,Bayou Vista,LA,1,1,30.2813059,-89.8175651,Louisiana,"Bayou Vista, Louisiana",1537,374
7,Blanchard,LA,1,0,32.580983,-93.8926813,Louisiana,"Blanchard, Louisiana",38,374
8,Bossier City,LA,3,2,32.5064115,-93.6518381304734,Louisiana,"Bossier City, Louisiana",61315,374
9,Bossier City ,LA,1,0,32.5064115,-93.6518381304734,Louisiana,"Bossier City , Louisiana",61315,374
10,Caddo Parish,LA,1,0,32.60755,-93.9023891782652,Louisiana,"Caddo Parish, Louisiana",254969,374
11,Calcasieu Parish,LA,1,0,30.26537195,-93.3691697243836,Louisiana,"Calcasieu Parish, Louisiana",192768,374
12,Carencro,LA,2,0,30.317144,-92.0490096,Louisiana,"Carencro, Louisiana",7526,374
15,Covington,LA,1,0,30.4754702,-90.1009108,Louisiana,"Covington, Louisiana",37765,374
16,Creston,LA,1,0,31.9759941,-93.049884,Louisiana,"Creston, Louisiana",662,374
17,Crowley,LA,1,0,30.2140928,-92.3745761,Louisiana,"Crowley, Louisiana",176,374
18,DeRidder,LA,1,0,30.8463055,-93.2890528,Louisiana,"DeRidder, Louisiana",10578,374
19,Denham Springs,LA,2,0,30.4868564,-90.9562125,Louisiana,"Denham Springs, Louisiana",10215,374
20,Donaldsonville,LA,2,0,30.1010324,-90.9928774,Louisiana,"Donaldsonville, Louisiana",7436,374
21,Duson,LA,1,0,30.2357577,-92.1854035,Louisiana,"Duson, Louisiana",1716,374
25,Ferriday,LA,1,0,31.6301664,-91.5545649,Louisiana,"Ferriday, Louisiana",3511,374
28,Gentilly,LA,4,0,30.0156248,-90.0518356,Louisiana,"Gentilly, Louisiana",280,374
29,Gonzales,LA,1,0,30.2385294,-90.9200987,Louisiana,"Gonzales, Louisiana",8187,374
30,Gray,LA,1,0,29.6977108,-90.786481,Louisiana,"Gray, Louisiana",3276,374
31,Hammond,LA,3,1,30.5043583,-90.4611995,Louisiana,"Hammond, Louisiana",509,374
32,Harahan,LA,1,0,29.9404826,-90.2031313,Louisiana,"Harahan, Louisiana",9277,374
33,Harvey,LA,10,0,29.9035387,-90.0772944,Louisiana,"Harvey, Louisiana",25282,374
34,Houma,LA,9,1,29.5957696,-90.7195348,Louisiana,"Houma, Louisiana",33727,374
35,Jamestown,LA,1,0,32.3440452,-93.2118341,Louisiana,"Jamestown, Louisiana",274,374
36,Jeanerette,LA,1,0,29.9110378,-91.6634484,Louisiana,"Jeanerette, Louisiana",5530,374
37,Jefferson,LA,2,0,29.8502657,-90.1293894,Louisiana,"Jefferson, Louisiana",658466,374
38,Jena,LA,1,0,31.6832271,-92.1337448,Louisiana,"Jena, Louisiana",3398,374
39,Kenner,LA,7,0,29.9940924,-90.2417434,Louisiana,"Kenner, Louisiana",66702,374
40,Kentwood,LA,1,1,30.9382358,-90.5089843,Louisiana,"Kentwood, Louisiana",2198,374
41,Krotz Springs,LA,1,0,30.5368592,-91.7528931,Louisiana,"Krotz Springs, Louisiana",1198,374
42,LaFayette,LA,2,1,30.2240897,-92.0198427,Louisiana,"LaFayette, Louisiana",7645,374
44,Lafayette,LA,5,0,30.2240897,-92.0198427,Louisiana,"Lafayette, Louisiana",7645,374
45,Lafayette Parish,LA,1,1,30.208284,-92.1120742909936,Louisiana,"Lafayette Parish, Louisiana",221578,374
46,Lafourche Parish,LA,1,0,29.50317955,-90.3635387246086,Louisiana,"Lafourche Parish, Louisiana",96318,374
47,Lake Charles,LA,5,0,30.2265949,-93.2173759,Louisiana,"Lake Charles, Louisiana",71993,374
49,Livingston Parish,LA,1,0,30.412795,-90.74105906572233,Louisiana,"Livingston Parish, Louisiana",128026,374
51,Luling,LA,1,0,29.9321498,-90.3664695,Louisiana,"Luling, Louisiana",5411,374
52,Mansfield,LA,1,0,32.0376629,-93.7001819,Louisiana,"Mansfield, Louisiana",1139,374
55,Monroe,LA,2,0,32.5093109,-92.1193012,Louisiana,"Monroe, Louisiana",23068,374
56,Morgan City,LA,1,0,29.6993748,-91.20677,Louisiana,"Morgan City, Louisiana",240,374
58,New Orleans,LA,146,17,29.9499323,-90.0701156,Louisiana,"New Orleans, Louisiana",343829,374
59,New Orleans ,LA,1,0,29.9499323,-90.0701156,Louisiana,"New Orleans , Louisiana",343829,374
60,Patterson,LA,1,1,29.6932642,-91.3020502,Louisiana,"Patterson, Louisiana",452,374
61,Port Allen,LA,2,0,30.4521351,-91.2101081,Louisiana,"Port Allen, Louisiana",5180,374
62,Prairieville,LA,2,0,30.3029721,-90.9720451,Louisiana,"Prairieville, Louisiana",3404,374
64,Reserve,LA,5,0,30.0538131,-90.5517534,Louisiana,"Reserve, Louisiana",1423,374
66,Ruston,LA,1,0,32.5269104,-92.6463257,Louisiana,"Ruston, Louisiana",21859,374
67,Shreveport,LA,13,0,32.5221828,-93.7651944,Louisiana,"Shreveport, Louisiana",199311,374
68,Slidell,LA,6,0,30.2751945,-89.7811745,Louisiana,"Slidell, Louisiana",27068,374
69,Sorrento,LA,1,0,30.1843642,-90.8592632,Louisiana,"Sorrento, Louisiana",1401,374
70,St. Bernard,LA,1,0,29.8779823,-89.5969002,Louisiana,"St. Bernard, Louisiana",502,374
71,St. Joseph,LA,2,0,31.9184926,-91.2334451,Louisiana,"St. Joseph, Louisiana",3967,374
72,St. Rose,LA,3,0,29.9468716,-90.3231349,Louisiana,"St. Rose, Louisiana",1422,374
73,St. Tammany Parish,LA,1,0,30.4256963,-89.9620548399311,Louisiana,"St. Tammany Parish, Louisiana",233740,374
74,Terrebonne,LA,1,0,29.4257758,-90.5674867,Louisiana,"Terrebonne, Louisiana",147,374
75,Terrytown,LA,1,0,29.910205,-90.0325709,Louisiana,"Terrytown, Louisiana",1198,374
76,Thibodaux,LA,2,0,29.7957633,-90.822871,Louisiana,"Thibodaux, Louisiana",14566,374
77,Varnado,LA,2,0,30.8937963,-89.8295203,Louisiana,"Varnado, Louisiana",1461,374
78,Ville Platte,LA,1,0,30.6879749,-92.2715157,Louisiana,"Ville Platte, Louisiana",7430,374
79,Violet,LA,1,0,29.8957605,-89.8978439,Louisiana,"Violet, Louisiana",38572,374
81,West Monroe,LA,1,1,32.5184775,-92.1476353,Louisiana,"West Monroe, Louisiana",13065,374
82,Winnfield,LA,1,0,31.9254413,-92.6395932,Louisiana,"Winnfield, Louisiana",4840,374
83,Winnsboro,LA,1,0,32.1632079,-91.720681,Louisiana,"Winnsboro, Louisiana",4910,374
84,Bridge City,LA,0,1,29.9332605,-90.1700748,Louisiana,"Bridge City, Louisiana",7840,374
85,Franklinton,LA,0,1,30.8471283,-90.153141,Louisiana,"Franklinton, Louisiana",3857,374
86,Jonesville,LA,0,1,31.6265595,-91.8181828,Louisiana,"Jonesville, Louisiana",177,374
87,Longville,LA,0,1,30.6051979,-93.2318269,Louisiana,"Longville, Louisiana",156,374
88,Many,LA,0,1,31.5687848,-93.4840645,Louisiana,"Many, Louisiana",2853,374
89,New Iberia,LA,0,1,30.0035365,-91.8187285,Louisiana,"New Iberia, Louisiana",30617,374
90,Ponchatoula,LA,0,1,30.4388041,-90.4414762,Louisiana,"Ponchatoula, Louisiana",6559,374
91,Slaughter,LA,0,1,30.7174063,-91.1414958,Louisiana,"Slaughter, Louisiana",997,374
93,Abbeville,SC,2,0,34.1781719,-82.3790148,South Carolina,"Abbeville, South Carolina",2688,219
94,Abbeville County,SC,1,0,34.2492945,-82.4732576974835,South Carolina,"Abbeville County, South Carolina",25417,219
95,Anderson,SC,4,2,34.5068601,-82.6506264,South Carolina,"Anderson, South Carolina",282,219
96,Anderson County,SC,1,1,34.5153635,-82.6527126435937,South Carolina,"Anderson County, South Carolina",8102,219
97,Beaufort,SC,2,0,32.3850708,-80.6923169,South Carolina,"Beaufort, South Carolina",4039,219
99,Belton,SC,2,1,34.5228881,-82.4942948,South Carolina,"Belton, South Carolina",23116,219
100,Bennettsville,SC,3,0,34.6173803,-79.6847814,South Carolina,"Bennettsville, South Carolina",9069,219
101,Bishopville,SC,1,0,34.2182107,-80.2484056,South Carolina,"Bishopville, South Carolina",3471,219
102,Blackville,SC,1,0,33.3579297,-81.2706606,South Carolina,"Blackville, South Carolina",2406,219
103,Burton,SC,1,0,32.4357843,-80.7242883,South Carolina,"Burton, South Carolina",909,219
104,Charleston,SC,8,0,32.7876012,-79.9402728,South Carolina,"Charleston, South Carolina",2494,219
105,Charleston County,SC,1,2,32.97595765,-79.5608142364772,South Carolina,"Charleston County, South Carolina",350209,219
106,Chester,SC,2,0,34.5751447,-80.9019237,South Carolina,"Chester, South Carolina",159,219
107,Chester County,SC,1,0,34.6830445,-81.1656734367261,South Carolina,"Chester County, South Carolina",498886,219
108,Chesterfield,SC,1,0,32.7579551,-79.9914803,South Carolina,"Chesterfield, South Carolina",188,219
109,Chesterfield County,SC,1,0,34.5934105,-80.0974157026473,South Carolina,"Chesterfield County, South Carolina",46734,219
110,Colleton County,SC,2,0,32.7863418,-80.65355233136951,South Carolina,"Colleton County, South Carolina",38892,219
111,Columbia,SC,20,7,34.0872775,-80.981149735255,South Carolina,"Columbia, South Carolina",740,219
112,Conway,SC,4,1,33.8360035,-79.0478143,South Carolina,"Conway, South Carolina",58908,219
113,Conway ,SC,1,0,33.8360035,-79.0478143,South Carolina,"Conway , South Carolina",58908,219
114,Cottageville,SC,1,0,32.936838,-80.480935,South Carolina,"Cottageville, South Carolina",762,219
116,Darlington,SC,1,0,34.2998762,-79.8761741,South Carolina,"Darlington, South Carolina",843,219
117,Donalds,SC,2,0,34.3770591,-82.3473448,South Carolina,"Donalds, South Carolina",348,219
118,Dorchester County,SC,1,1,33.07602025,-80.4273289918359,South Carolina,"Dorchester County, South Carolina",32618,219
119,Edgefield County,SC,1,0,33.7543985,-81.9496810525656,South Carolina,"Edgefield County, South Carolina",26985,219
120,Florence,SC,2,1,33.7846102,-79.4488454,South Carolina,"Florence, South Carolina",39319,219
122,Fountain Inn,SC,1,2,34.6890095,-82.1956679,South Carolina,"Fountain Inn, South Carolina",7799,219
123,Friendship,SC,1,0,34.4984463,-82.3809556,South Carolina,"Friendship, South Carolina",176,219
124,Gaffney,SC,2,1,35.0717945,-81.6498195,South Carolina,"Gaffney, South Carolina",12414,219
125,Goose Creek,SC,2,1,33.0126515,-80.03275951513831,South Carolina,"Goose Creek, South Carolina",790,219
127,Greeleyville,SC,1,0,33.5809988,-79.9889654,South Carolina,"Greeleyville, South Carolina",438,219
128,Greenville,SC,11,2,34.8512316,-82.3985105,South Carolina,"Greenville, South Carolina",8135,219
129,Greenville County,SC,1,1,34.8500365,-82.34855143744089,South Carolina,"Greenville County, South Carolina",451225,219
130,Greenwood,SC,4,2,34.0420737,-81.9594608,South Carolina,"Greenwood, South Carolina",8952,219
131,Greenwood County,SC,5,3,34.182129,-82.0793519095969,South Carolina,"Greenwood County, South Carolina",6689,219
132,Hanahan,SC,1,0,32.9138914,-80.0088359,South Carolina,"Hanahan, South Carolina",17997,219
134,Honea Path,SC,1,0,34.4465018,-82.3915122,South Carolina,"Honea Path, South Carolina",3597,219
135,Irmo,SC,1,0,34.0859829,-81.1831513,South Carolina,"Irmo, South Carolina",11097,219
136,Jonesville,SC,1,1,32.7362873,-80.8159402,South Carolina,"Jonesville, South Carolina",177,219
137,Kershaw,SC,2,0,34.5518201,-80.5836836,South Carolina,"Kershaw, South Carolina",1803,219
138,Kiawah Island,SC,1,1,32.6082373,-80.0848166,South Carolina,"Kiawah Island, South Carolina",1626,219
139,Lamar,SC,1,0,34.1687661,-80.062568,South Carolina,"Lamar, South Carolina",14564,219
140,Lancaster,SC,3,2,34.630155,-80.4333021,South Carolina,"Lancaster, South Carolina",156633,219
141,Latta,SC,1,0,34.3371047,-79.4311616,South Carolina,"Latta, South Carolina",1379,219
142,Lexington,SC,3,0,33.9850175,-81.22347684150579,South Carolina,"Lexington, South Carolina",735,219
143,Lexington County,SC,1,0,33.9250165,-81.28323148921699,South Carolina,"Lexington County, South Carolina",262391,219
144,Loris,SC,1,0,34.0562812,-78.8903044,South Carolina,"Loris, South Carolina",2396,219
145,Marion,SC,2,0,34.178216,-79.4006069,South Carolina,"Marion, South Carolina",3686,219
146,Moncks Corner,SC,3,0,33.1960027,-80.0131374,South Carolina,"Moncks Corner, South Carolina",7885,219
147,Mount Pleasant,SC,1,0,32.831845,-79.8858415819073,South Carolina,"Mount Pleasant, South Carolina",414,219
149,Myrtle Beach,SC,1,0,33.6955167,-78.8817622,South Carolina,"Myrtle Beach, South Carolina",27109,219
150,North Charleston,SC,10,1,32.939636,-80.09821022216751,South Carolina,"North Charleston, South Carolina",97471,219
152,Orangeburg,SC,2,0,33.4273582,-80.2807457,South Carolina,"Orangeburg, South Carolina",13964,219
153,Pineville,SC,1,0,33.4282228,-80.0292462,South Carolina,"Pineville, South Carolina",238,219
154,Ravenel,SC,1,0,32.7632321,-80.2500986,South Carolina,"Ravenel, South Carolina",2465,219
155,Richland County,SC,5,2,33.8071004,-80.6372094,South Carolina,"Richland County, South Carolina",16233,219
156,Ridgeland,SC,1,0,32.4807435,-80.980386,South Carolina,"Ridgeland, South Carolina",369,219
157,Ridgeville,SC,1,0,33.095723,-80.3153738,South Carolina,"Ridgeville, South Carolina",112,219
158,Rock Hill,SC,4,1,34.9248667,-81.0250784,South Carolina,"Rock Hill, South Carolina",4635,219
159,Saluda,SC,1,0,34.074864,-81.4841699,South Carolina,"Saluda, South Carolina",1370,219
160,Saluda County,SC,1,1,34.0005725,-81.7492391008036,South Carolina,"Saluda County, South Carolina",19875,219
161,Seneca,SC,1,1,34.6865321,-82.9527288,South Carolina,"Seneca, South Carolina",2371,219
163,Spartanburg,SC,4,0,34.9498007,-81.9320157,South Carolina,"Spartanburg, South Carolina",37013,219
164,Spartanburg County,SC,1,0,34.888851,-81.9803047128018,South Carolina,"Spartanburg County, South Carolina",284307,219
166,Sumter,SC,4,1,33.9679376,-79.9413592,South Carolina,"Sumter, South Carolina",13763,219
167,Turbeville,SC,1,0,33.8907158,-80.0184063,South Carolina,"Turbeville, South Carolina",766,219
168,Walterboro,SC,2,0,32.9051704,-80.6667688,South Carolina,"Walterboro, South Carolina",5398,219
169,Wellford,SC,1,0,34.9509521,-82.1059416,South Carolina,"Wellford, South Carolina",2378,219
170,West Columbia,SC,1,1,33.984518,-81.0982072080292,South Carolina,"West Columbia, South Carolina",14988,219
171,Westminster,SC,1,0,34.6648197,-83.0965425,South Carolina,"Westminster, South Carolina",89701,219
172,Williamston,SC,1,0,34.6184471,-82.4779053,South Carolina,"Williamston, South Carolina",3854,219
173,Woodruff,SC,1,0,34.7395701,-82.0370466,South Carolina,"Woodruff, South Carolina",7260,219
174,York,SC,1,0,34.9943021,-81.2420175,South Carolina,"York, South Carolina",2538,219
175,Andrews,SC,0,1,33.451278,-79.5608971,South Carolina,"Andrews, South Carolina",1149,219
176,Garden City,SC,0,1,33.5929472,-79.0086464,South Carolina,"Garden City, South Carolina",492,219
177,Hartsville,SC,0,1,34.3740431,-80.0734005,South Carolina,"Hartsville, South Carolina",362,219
178,Hodges,SC,0,1,34.2875885,-82.2479312935603,South Carolina,"Hodges, South Carolina",288,219
179,Horry County,SC,0,1,33.93569585,-78.9770263415457,South Carolina,"Horry County, South Carolina",269291,219
180,Iva,SC,0,2,34.3064967,-82.663743,South Carolina,"Iva, South Carolina",1218,219
182,Lancaster County,SC,0,1,34.76491,-80.6961548710969,South Carolina,"Lancaster County, South Carolina",285407,219
183,Little River,SC,0,1,33.8732279,-78.6141798,South Carolina,"Little River, South Carolina",13171,219
184,Santee,SC,0,1,33.4751634,-80.4864764,South Carolina,"Santee, South Carolina",53413,219
185,St. George,SC,0,1,33.1859958,-80.5756534,South Carolina,"St. George, South Carolina",102,219
186,Summerville,SC,0,1,32.9960965,-80.2021633056339,South Carolina,"Summerville, South Carolina",4534,219
188,Travelers Rest,SC,0,1,34.9676167,-82.4434548,South Carolina,"Travelers Rest, South Carolina",4576,219
189,Wagener,SC,0,1,33.6523712,-81.3612142,South Carolina,"Wagener, South Carolina",797,219
190,Aberdeen,MD,1,0,39.5095556,-76.1641197,Maryland,"Aberdeen, Maryland",1994,292
191,Annapolis,MD,4,0,38.9786401,-76.492786,Maryland,"Annapolis, Maryland",38394,292
193,Baltimore,MD,178,22,39.2909295,-76.6097684,Maryland,"Baltimore, Maryland",620961,292
194,Baltimore County,MD,1,0,39.2846027,-76.62047203423779,Maryland,"Baltimore County, Maryland",805029,292
195,Bel Air,MD,1,0,39.5357481,-76.3484809,Maryland,"Bel Air, Maryland",10120,292
196,Bowie,MD,1,0,39.0067768,-76.7791365,Maryland,"Bowie, Maryland",54727,292
197,Brandywine,MD,1,0,38.6967833,-76.8477485,Maryland,"Brandywine, Maryland",2392,292
199,Capitol Heights,MD,3,0,38.8853963,-76.9159441,Maryland,"Capitol Heights, Maryland",4337,292
200,Clinton,MD,2,1,38.7651145,-76.8983059,Maryland,"Clinton, Maryland",2602,292
201,College Park,MD,3,0,38.980666,-76.9369189,Maryland,"College Park, Maryland",13942,292
202,Columbia,MD,1,1,39.2151996,-76.8546725,Maryland,"Columbia, Maryland",740,292
203,Delmar,MD,1,0,38.4559497,-75.577425,Maryland,"Delmar, Maryland",1597,292
204,District Heights,MD,2,0,38.8576128,-76.8894171,Maryland,"District Heights, Maryland",5837,292
206,Edgewood,MD,2,0,39.4187194,-76.2944016,Maryland,"Edgewood, Maryland",2503,292
207,Essex,MD,1,0,39.3075143,-76.4788202,Maryland,"Essex, Maryland",6683,292
208,Fairmount Heights,MD,1,0,38.9009452,-76.9155291,Maryland,"Fairmount Heights, Maryland",1494,292
209,Forestville,MD,5,0,38.8451131,-76.8749722,Maryland,"Forestville, Maryland",136,292
211,Frederick,MD,1,0,39.414443,-77.4105783,Maryland,"Frederick, Maryland",8679,292
212,Frostburg,MD,1,0,39.6581425,-78.928357,Maryland,"Frostburg, Maryland",9002,292
214,Gaithersburg,MD,1,0,39.1434406,-77.2013705,Maryland,"Gaithersburg, Maryland",59933,292
215,Germantown,MD,2,2,39.1731621,-77.2716502,Maryland,"Germantown, Maryland",1269,292
217,Glenarden,MD,1,0,38.9292782,-76.8616387,Maryland,"Glenarden, Maryland",6000,292
219,Hagerstown,MD,2,0,39.6419219,-77.7202641,Maryland,"Hagerstown, Maryland",1787,292
220,Hampstead,MD,1,0,39.6048252,-76.8499775,Maryland,"Hampstead, Maryland",6323,292
222,Havre de Grace,MD,1,0,39.5489964,-76.0914718,Maryland,"Havre de Grace, Maryland",12952,292
223,Hickory,MD,1,0,39.5787178,-76.3452374,Maryland,"Hickory, Maryland",154,292
224,Hillcrest Heights,MD,4,0,38.8328909,-76.9594189,Maryland,"Hillcrest Heights, Maryland",254,292
225,La Plata,MD,1,0,38.5292877,-76.9752514,Maryland,"La Plata, Maryland",51334,292
228,Largo,MD,1,0,38.8823465,-76.8286242874533,Maryland,"Largo, Maryland",77648,292
229,Laurel,MD,1,2,39.0992752,-76.8483061,Maryland,"Laurel, Maryland",3708,292
231,Middle River,MD,1,0,39.3342745,-76.4394057,Maryland,"Middle River, Maryland",303,292
232,Millersville,MD,1,0,39.0595542,-76.6480219,Maryland,"Millersville, Maryland",6440,292
233,New Market,MD,2,1,39.3826031,-77.2694278,Maryland,"New Market, Maryland",636,292
234,North East,MD,1,0,39.6001132,-75.9413327,Maryland,"North East, Maryland",3572,292
235,Ocean City,MD,1,0,38.40678,-75.0618486,Maryland,"Ocean City, Maryland",7102,292
238,Port Deposit,MD,2,0,39.6048327,-76.1152289,Maryland,"Port Deposit, Maryland",653,292
240,Prince George's County,MD,3,0,38.803929,-76.8518695,Maryland,"Prince George's County, Maryland",863420,292
241,Princess Anne,MD,2,0,38.2028993,-75.692427,Maryland,"Princess Anne, Maryland",3290,292
242,Queen Anne's County,MD,1,0,39.0326935,-76.0396585564288,Maryland,"Queen Anne's County, Maryland",47798,292
245,Rockville,MD,1,0,39.0840054,-77.1527573,Maryland,"Rockville, Maryland",879,292
247,Rosedale,MD,2,0,39.3201074,-76.5155191,Maryland,"Rosedale, Maryland",456,292
248,Salisbury,MD,4,0,38.3662114,-75.6008881,Maryland,"Salisbury, Maryland",3741,292
249,Seat Pleasant,MD,2,0,38.8962231,-76.9066399,Maryland,"Seat Pleasant, Maryland",4542,292
250,Severn,MD,1,0,39.1370528,-76.6983022,Maryland,"Severn, Maryland",276,292
251,Silver Spring,MD,1,0,39.00884145,-77.0205440580873,Maryland,"Silver Spring, Maryland",13657,292
253,St. Mary's County,MD,1,0,38.20161245,-76.5590579405692,Maryland,"St. Mary's County, Maryland",105151,292
255,Takoma Park,MD,2,0,38.9778882,-77.0074765,Maryland,"Takoma Park, Maryland",16715,292
256,Taneytown,MD,1,0,39.6578773,-77.1744279,Maryland,"Taneytown, Maryland",6728,292
260,Upper Marlboro,MD,1,0,38.8162654,-76.7518462,Maryland,"Upper Marlboro, Maryland",631,292
261,Waldorf,MD,1,1,38.63501915,-76.9063116959882,Maryland,"Waldorf, Maryland",229,292
263,Westminster,MD,1,0,39.5752639,-76.9959277,Maryland,"Westminster, Maryland",89701,292
265,Williamsport,MD,1,0,39.6006523,-77.8205508,Maryland,"Williamsport, Maryland",1898,292
267,Elkton,MD,0,1,39.6065545,-75.81580023333329,Maryland,"Elkton, Maryland",2062,292
268,Frederick County,MD,0,1,39.4698212,-77.367982955053,Maryland,"Frederick County, Maryland",233385,292
269,Parkville,MD,0,1,39.3773292,-76.5396875,Maryland,"Parkville, Maryland",5554,292
270,Aberdeen,NC,3,0,35.131547,-79.4294789,North Carolina,"Aberdeen, North Carolina",1994,421
271,Alamance County,NC,1,0,36.0431402,-79.4075384,North Carolina,"Alamance County, North Carolina",151131,421
272,Albemarle,NC,1,0,35.3501426,-80.2000578,North Carolina,"Albemarle, North Carolina",15903,421
273,Angier,NC,2,0,35.5071045,-78.7391813,North Carolina,"Angier, North Carolina",4350,421
274,Anson County,NC,1,0,34.9705848,-80.0958187,North Carolina,"Anson County, North Carolina",26948,421
275,Arden,NC,1,1,35.4662258,-82.51651,North Carolina,"Arden, North Carolina",439,421
276,Asheville,NC,11,3,35.6009498,-82.5540161,North Carolina,"Asheville, North Carolina",83393,421
277,Beaufort,NC,1,0,34.7182174,-76.6638186,North Carolina,"Beaufort, North Carolina",4039,421
278,Bessemer City,NC,1,0,35.2848579,-81.28397,North Carolina,"Bessemer City, North Carolina",27456,421
279,Beulaville,NC,1,0,34.9237763,-77.7738667,North Carolina,"Beulaville, North Carolina",1296,421
281,Burnsville,NC,1,0,35.9173358,-82.300961,North Carolina,"Burnsville, North Carolina",60306,421
282,Cabarrus County,NC,1,0,35.3568086,-80.4277412,North Carolina,"Cabarrus County, North Carolina",178011,421
283,Caldwell County,NC,2,0,35.687914,-81.2020823560741,North Carolina,"Caldwell County, North Carolina",12984,421
284,Cameron,NC,1,0,35.3268226,-79.255303,North Carolina,"Cameron, North Carolina",137,421
285,Candler,NC,2,0,35.536498,-82.692907,North Carolina,"Candler, North Carolina",10998,421
286,Carolina Beach,NC,1,0,34.0351727,-77.8935966,North Carolina,"Carolina Beach, North Carolina",5706,421
287,Carrboro,NC,1,0,35.9101438,-79.0752895,North Carolina,"Carrboro, North Carolina",19582,421
288,Catawba,NC,1,1,35.5868015,-80.9594203,North Carolina,"Catawba, North Carolina",603,421
289,Chadbourn,NC,1,0,34.3221129,-78.8269664,North Carolina,"Chadbourn, North Carolina",1856,421
290,Charleston,NC,2,1,36.1201561,-77.3755239,North Carolina,"Charleston, North Carolina",2494,421
291,Charlotte,NC,47,5,35.3314525,-80.93985542307689,North Carolina,"Charlotte, North Carolina",159978,421
293,Clayton,NC,1,0,35.650711,-78.4563914,North Carolina,"Clayton, North Carolina",3008,421
294,Clemmons,NC,1,1,36.0215258,-80.3819984,North Carolina,"Clemmons, North Carolina",18627,421
295,Cleveland,NC,2,0,35.330702,-81.5507523,North Carolina,"Cleveland, North Carolina",1303,421
296,Clinton,NC,1,0,34.9979453,-78.3233325,North Carolina,"Clinton, North Carolina",2602,421
298,Concord,NC,5,1,35.4087517,-80.579511,North Carolina,"Concord, North Carolina",244,421
299,Conway,NC,1,0,36.4370974,-77.2288563,North Carolina,"Conway, North Carolina",58908,421
300,Dobson,NC,1,0,36.3956891,-80.722567,North Carolina,"Dobson, North Carolina",1586,421
301,Durham,NC,28,2,35.9940329,-78.898619,North Carolina,"Durham, North Carolina",7388,421
302,Eden,NC,1,0,36.4884715,-79.7667026,North Carolina,"Eden, North Carolina",405,421
303,Elizabeth City,NC,2,0,36.2946008,-76.2510461,North Carolina,"Elizabeth City, North Carolina",173,421
304,Erwin,NC,1,1,35.3268292,-78.676128,North Carolina,"Erwin, North Carolina",326,421
305,Fairmont,NC,3,0,34.4968311,-79.114202,North Carolina,"Fairmont, North Carolina",10666,421
306,Fayetteville,NC,27,6,35.0529931,-78.8787058,North Carolina,"Fayetteville, North Carolina",73580,421
307,Forest Hills,NC,1,0,35.6809727,-80.4753371,North Carolina,"Forest Hills, North Carolina",444,421
308,Fort Bragg,NC,1,0,35.15383385,-79.13364761962099,North Carolina,"Fort Bragg, North Carolina",7273,421
309,Fuquay-Varina,NC,1,0,35.5843235,-78.8000128,North Carolina,"Fuquay-Varina, North Carolina",17937,421
310,Garner,NC,2,3,35.7112642,-78.6141709,North Carolina,"Garner, North Carolina",284,421
311,Garysburg,NC,1,0,36.450985,-77.5588661,North Carolina,"Garysburg, North Carolina",1057,421
312,Gastonia,NC,2,1,35.262082,-81.1873005,North Carolina,"Gastonia, North Carolina",71741,421
313,Gibsonville,NC,1,0,36.105691,-79.5422462,North Carolina,"Gibsonville, North Carolina",6410,421
314,Goldsboro,NC,5,0,35.3848841,-77.9927651,North Carolina,"Goldsboro, North Carolina",246,421
315,Graham,NC,1,0,36.0690258,-79.4005756,North Carolina,"Graham, North Carolina",37220,421
316,Greensboro,NC,14,7,36.0726355,-79.7919754,North Carolina,"Greensboro, North Carolina",2497,421
317,Greenville,NC,5,1,35.612661,-77.3663538,North Carolina,"Greenville, North Carolina",8135,421
318,Harrisburg,NC,3,0,35.3237528,-80.6559017,North Carolina,"Harrisburg, North Carolina",2288,421
319,Henderson,NC,3,1,36.3295905,-78.3991638,North Carolina,"Henderson, North Carolina",255,421
320,Hendersonville,NC,2,2,35.3187279,-82.4609528,North Carolina,"Hendersonville, North Carolina",13137,421
321,Hickory,NC,2,0,35.7331895,-81.3412006,North Carolina,"Hickory, North Carolina",154,421
322,High Point,NC,2,1,35.9556924,-80.0053176,North Carolina,"High Point, North Carolina",104371,421
323,Hoke County,NC,1,0,35.0271856,-79.2432785,North Carolina,"Hoke County, North Carolina",46952,421
325,Jacksonville,NC,3,1,34.7540524,-77.4302415,North Carolina,"Jacksonville, North Carolina",12548,421
326,Johnston County,NC,1,0,35.5285816,-78.3768021,North Carolina,"Johnston County, North Carolina",168878,421
327,Kingston,NC,1,0,35.9577741,-78.54359804876941,North Carolina,"Kingston, North Carolina",637,421
328,Kinston,NC,3,0,35.2626635,-77.5816353,North Carolina,"Kinston, North Carolina",540,421
329,Knightdale,NC,1,1,35.7878975,-78.4822938,North Carolina,"Knightdale, North Carolina",11401,421
330,Laurinburg,NC,1,1,34.7740495,-79.4628248,North Carolina,"Laurinburg, North Carolina",15962,421
331,Lee County,NC,1,0,35.4579333,-79.0529768,North Carolina,"Lee County, North Carolina",140247,421
332,Leicester,NC,2,1,35.6551074,-82.6962438,North Carolina,"Leicester, North Carolina",10970,421
333,Lenoir County,NC,2,1,35.2590371,-77.6484879,North Carolina,"Lenoir County, North Carolina",59495,421
334,Lewisville,NC,1,0,36.0970819,-80.4192216,North Carolina,"Lewisville, North Carolina",1280,421
335,Lexington,NC,1,0,35.8240265,-80.2533838,North Carolina,"Lexington, North Carolina",735,421
336,Lillington,NC,2,0,35.399327,-78.8158528,North Carolina,"Lillington, North Carolina",3194,421
337,Louisburg,NC,1,2,36.0990393,-78.301106,North Carolina,"Louisburg, North Carolina",4315,421
338,Lumberton,NC,11,3,34.6182199,-79.0086425,North Carolina,"Lumberton, North Carolina",2086,421
339,Manteo,NC,1,0,35.9082257,-75.6757303,North Carolina,"Manteo, North Carolina",1434,421
340,Marion,NC,3,0,35.6840131,-82.0092745,North Carolina,"Marion, North Carolina",3686,421
341,Matthews,NC,2,0,35.1168131,-80.7236804,North Carolina,"Matthews, North Carolina",596,421
342,Maxton,NC,1,0,34.7351615,-79.3489317,North Carolina,"Maxton, North Carolina",2426,421
344,Monroe,NC,2,0,35.0734275,-80.5654443615441,North Carolina,"Monroe, North Carolina",23068,421
345,Mooresboro,NC,1,0,35.2987362,-81.6989863,North Carolina,"Mooresboro, North Carolina",311,421
346,Morganton,NC,1,0,35.7454071,-81.6848188,North Carolina,"Morganton, North Carolina",303,421
347,Mount Holly,NC,2,0,35.2981943,-81.0159081,North Carolina,"Mount Holly, North Carolina",9536,421
349,Nashville,NC,2,0,35.974598,-77.9655406,North Carolina,"Nashville, North Carolina",4627,421
350,New Bern,NC,1,0,35.1084931,-77.0441143,North Carolina,"New Bern, North Carolina",29524,421
351,New Hanover County,NC,1,0,34.224045,-77.88542043760621,North Carolina,"New Hanover County, North Carolina",202667,421
352,North Wilkesboro,NC,1,0,36.1584651,-81.1475841,North Carolina,"North Wilkesboro, North Carolina",4245,421
353,Northampton,NC,1,0,36.4168078,-77.3642227,North Carolina,"Northampton, North Carolina",28549,421
354,Oxford,NC,1,0,34.9704419,-78.9453056,North Carolina,"Oxford, North Carolina",21348,421
355,Parkton,NC,1,0,34.9026635,-79.0116971,North Carolina,"Parkton, North Carolina",436,421
357,Pikeville,NC,1,0,35.497105,-77.9819312,North Carolina,"Pikeville, North Carolina",6903,421
359,Raeford,NC,1,0,34.9809996,-79.2241998,North Carolina,"Raeford, North Carolina",4611,421
360,Raleigh,NC,9,2,35.7803888,-78.6390587,North Carolina,"Raleigh, North Carolina",350,421
362,Reidsville,NC,1,0,36.3548586,-79.6644748,North Carolina,"Reidsville, North Carolina",4944,421
364,Roanoke Rapids,NC,1,0,36.4615395,-77.6541464,North Carolina,"Roanoke Rapids, North Carolina",15754,421
365,Robeson County,NC,1,0,34.6485079,-79.0954942,North Carolina,"Robeson County, North Carolina",134168,421
366,Rockingham,NC,1,0,36.3926798,-79.744144,North Carolina,"Rockingham, North Carolina",295223,421
367,Rocky Mount,NC,1,2,35.9382104,-77.7905341,North Carolina,"Rocky Mount, North Carolina",57477,421
368,Rural Hall,NC,1,0,36.2404158,-80.2933838,North Carolina,"Rural Hall, North Carolina",2937,421
369,Rutherford County,NC,1,0,35.393858,-81.91291399760111,North Carolina,"Rutherford County, North Carolina",67810,421
370,Rutherfordton,NC,1,1,35.3692877,-81.9567716,North Carolina,"Rutherfordton, North Carolina",4213,421
371,Salisbury,NC,2,0,35.6709727,-80.4742261,North Carolina,"Salisbury, North Carolina",3741,421
372,Sanford,NC,7,0,35.4798757,-79.1802994,North Carolina,"Sanford, North Carolina",241,421
373,Scotland County,NC,1,1,34.834591,-79.48619214313379,North Carolina,"Scotland County, North Carolina",4843,421
374,Shannon,NC,1,0,34.8479415,-79.1369782,North Carolina,"Shannon, North Carolina",757,421
375,Shelby,NC,1,1,35.2923513,-81.5356463,North Carolina,"Shelby, North Carolina",195085,421
376,Smithfield,NC,2,0,35.5085717,-78.3392929,North Carolina,"Smithfield, North Carolina",230,421
377,Southern Pines,NC,4,0,35.1740471,-79.3922539,North Carolina,"Southern Pines, North Carolina",12334,421
378,Sparta,NC,1,0,36.5054071,-81.1209189,North Carolina,"Sparta, North Carolina",1400,421
379,Spindale,NC,1,0,35.3601212,-81.929271,North Carolina,"Spindale, North Carolina",4321,421
381,Swansboro,NC,1,0,34.6876621,-77.1191166,North Carolina,"Swansboro, North Carolina",2663,421
383,Tabor,NC,1,0,36.1190265,-80.3194962,North Carolina,"Tabor, North Carolina",1040,421
384,Tabor City,NC,4,1,34.1487804,-78.8766916,North Carolina,"Tabor City, North Carolina",1040,421
385,Thomasville,NC,1,0,35.8826369,-80.0819879,North Carolina,"Thomasville, North Carolina",4209,421
386,Transylvania County,NC,1,0,35.1434499,-82.6428035,North Carolina,"Transylvania County, North Carolina",33090,421
387,Trent Woods,NC,1,0,35.0821039,-77.0863383,North Carolina,"Trent Woods, North Carolina",4155,421
388,Turkey,NC,1,1,34.9923888,-78.183049,North Carolina,"Turkey, North Carolina",292,421
389,Union County,NC,1,0,34.9795158,-80.5128209,North Carolina,"Union County, North Carolina",41639,421
390,Vass,NC,1,0,35.2562684,-79.2822491,North Carolina,"Vass, North Carolina",720,421
391,Wadesboro,NC,2,0,34.9682097,-80.0767266,North Carolina,"Wadesboro, North Carolina",5813,421
392,Wake County,NC,2,1,35.8243208,-78.3146199,North Carolina,"Wake County, North Carolina",900993,421
393,Wake Forest,NC,1,0,35.9798734,-78.5097228,North Carolina,"Wake Forest, North Carolina",30117,421
394,Walstonburg,NC,1,0,35.5946041,-77.6969203,North Carolina,"Walstonburg, North Carolina",219,421
395,Warrenton,NC,1,0,36.3984804,-78.1552706,North Carolina,"Warrenton, North Carolina",1937,421
396,Wendell,NC,1,0,35.780987,-78.3697213,North Carolina,"Wendell, North Carolina",2782,421
397,Whiteville,NC,1,1,34.3387802,-78.7030721,North Carolina,"Whiteville, North Carolina",5394,421
398,Wilmington,NC,8,0,34.2257282,-77.9447107,North Carolina,"Wilmington, North Carolina",70851,421
399,Wilson,NC,2,0,35.7212689,-77.9155395,North Carolina,"Wilson, North Carolina",903,421
400,Wilson County,NC,1,0,35.7059114,-77.9175714,North Carolina,"Wilson County, North Carolina",9409,421
401,Wingate,NC,2,0,34.9843176,-80.4492319,North Carolina,"Wingate, North Carolina",263,421
402,Winston-Salem,NC,14,2,36.0998596,-80.244216,North Carolina,"Winston-Salem, North Carolina",229617,421
404,salisbury,NC,1,0,35.6709727,-80.4742261,North Carolina,"salisbury, North Carolina",3741,421
405,Alexander,NC,0,1,35.924738,-81.1716315,North Carolina,"Alexander, North Carolina",2901,421
406,Anson county,NC,0,1,34.9705848,-80.0958187,North Carolina,"Anson county, North Carolina",26948,421
407,Asheboro,NC,0,1,35.7079146,-79.8136446,North Carolina,"Asheboro, North Carolina",25012,421
408,Cherokee,NC,0,1,35.2470348,-83.7031269,North Carolina,"Cherokee, North Carolina",1048,421
409,Chester,NC,0,1,35.8016663,-78.6598232,North Carolina,"Chester, North Carolina",159,421
410,Cumberland County,NC,0,1,35.0461723,-78.8394255,North Carolina,"Cumberland County, North Carolina",11048,421
411,Edgecombe County,NC,0,1,35.8607136,-77.3862562,North Carolina,"Edgecombe County, North Carolina",56552,421
412,Halifax County,NC,0,1,36.2494056,-77.66834,North Carolina,"Halifax County, North Carolina",54691,421
413,Haywood County,NC,0,1,35.5456202,-82.9907823,North Carolina,"Haywood County, North Carolina",59036,421
414,Lincolnton,NC,0,1,35.473745,-81.2545251,North Carolina,"Lincolnton, North Carolina",1566,421
415,Marshall,NC,0,2,35.7973284,-82.6840252,North Carolina,"Marshall, North Carolina",93019,421
416,Nash County,NC,0,1,35.913166,-77.5780964479167,North Carolina,"Nash County, North Carolina",95840,421
418,Red Springs,NC,0,2,34.8151633,-79.183091,North Carolina,"Red Springs, North Carolina",3428,421
419,Woodfin,NC,0,1,35.633444,-82.5820725,North Carolina,"Woodfin, North Carolina",6123,421
420,Aberdeen,SD,1,0,45.4646985,-98.4864829,South Dakota,"Aberdeen, South Dakota",1994,16
421,Clear Lake,SD,1,0,44.7457977,-96.6825584,South Dakota,"Clear Lake, South Dakota",229,16
423,Huron,SD,1,0,44.3633173,-98.2142572,South Dakota,"Huron, South Dakota",6754,16
424,Lake Andes,SD,1,0,43.1563822,-98.5414703,South Dakota,"Lake Andes, South Dakota",879,16
425,Lead,SD,2,0,44.3522065,-103.7651984,South Dakota,"Lead, South Dakota",3124,16
426,Onida,SD,1,0,44.7080379,-100.059845,South Dakota,"Onida, South Dakota",658,16
427,Pierre,SD,1,0,44.3683156,-100.3509665,South Dakota,"Pierre, South Dakota",13646,16
428,Rapid City,SD,2,0,44.0805434,-103.2310149,South Dakota,"Rapid City, South Dakota",67956,16
429,Sioux Falls,SD,2,0,43.5499749,-96.700327,South Dakota,"Sioux Falls, South Dakota",153888,16
430,Vermillion,SD,1,0,42.7794417,-96.9292104,South Dakota,"Vermillion, South Dakota",387,16
431,Wagner,SD,1,0,43.0797156,-98.2931342,South Dakota,"Wagner, South Dakota",332,16
432,Whitney,SD,1,0,43.8366201,-103.1884552,South Dakota,"Whitney, South Dakota",1001,16
433,Mitchell,SD,0,1,43.7092877,-98.0298399,South Dakota,"Mitchell, South Dakota",199,16
434,Abilene,TX,1,0,32.4838865,-99.7156495680329,Texas,"Abilene, Texas",6844,954
435,Alamo,TX,1,0,26.1822255,-98.115028749099,Texas,"Alamo, Texas",2797,954
436,Alice,TX,1,1,27.7596485,-98.07076189132952,Texas,"Alice, Texas",40,954
437,Alto,TX,1,0,31.6504546,-95.0727175,Texas,"Alto, Texas",1172,954
438,Alton,TX,2,1,26.2773795,-98.288392749442,Texas,"Alton, Texas",27865,954
439,Alvin,TX,2,0,29.28472515,-95.1125557457345,Texas,"Alvin, Texas",24236,954
440,Amarillo,TX,8,0,35.2072185,-101.8338246,Texas,"Amarillo, Texas",190695,954
441,Anahuac,TX,1,0,29.7651595,-94.6781374957217,Texas,"Anahuac, Texas",2243,954
442,Arlington,TX,13,6,32.701843,-97.1399759754197,Texas,"Arlington, Texas",1479,954
443,Arp,TX,1,0,32.2254332,-95.0577207,Texas,"Arp, Texas",970,954
445,Atascosa,TX,1,0,28.7924803,-98.139629,Texas,"Atascosa, Texas",44911,954
446,Athens,TX,1,0,32.2048735,-95.8555207,Texas,"Athens, Texas",21897,954
447,Austin,TX,14,3,30.2718065,-97.8035959224426,Texas,"Austin, Texas",2038,954
448,Azle,TX,1,0,32.896898,-97.5495391,Texas,"Azle, Texas",10947,954
449,Balch Springs,TX,1,0,32.7194665,-96.6102068849072,Texas,"Balch Springs, Texas",23728,954
450,Bandera,TX,1,0,29.7233825,-99.0739671304857,Texas,"Bandera, Texas",857,954
451,Bandera County,TX,1,0,29.7300155,-99.2095738002076,Texas,"Bandera County, Texas",20485,954
452,Bardwell,TX,2,1,32.2690354,-96.6961027,Texas,"Bardwell, Texas",723,954
453,Bastrop,TX,2,0,30.0854964,-97.0851637,Texas,"Bastrop, Texas",11365,954
454,Baytown,TX,4,0,29.684649,-94.9309393855974,Texas,"Baytown, Texas",1723,954
455,Beaumont,TX,6,2,30.0860459,-94.1018461,Texas,"Beaumont, Texas",36877,954
456,Beeville,TX,2,0,28.40995,-97.7480006849458,Texas,"Beeville, Texas",12863,954
457,Bellaire,TX,2,0,29.7076452,-95.46006693831048,Texas,"Bellaire, Texas",1086,954
458,Benbrook,TX,1,0,32.696598,-97.445054,Texas,"Benbrook, Texas",21234,954
459,Bexar County,TX,4,1,29.4372179,-98.4725113792381,Texas,"Bexar County, Texas",1714773,954
460,Big Spring,TX,1,1,32.2370195,-101.477732453279,Texas,"Big Spring, Texas",698,954
461,Bloomington,TX,1,0,28.6477735,-96.8924852,Texas,"Bloomington, Texas",206,954
463,Brenham,TX,1,0,30.1590475,-96.3954497120726,Texas,"Brenham, Texas",15716,954
464,Brownfield,TX,1,1,33.173755,-102.269261890315,Texas,"Brownfield, Texas",1597,954
465,Brownsville,TX,2,0,25.9140256,-97.4890856,Texas,"Brownsville, Texas",845,954
466,Bryan,TX,2,0,30.6743643,-96.3699632,Texas,"Bryan, Texas",30233,954
467,Burleson,TX,1,0,30.4764878,-96.6353488,Texas,"Burleson, Texas",36690,954
468,Carrollton,TX,1,0,32.9537349,-96.8902816,Texas,"Carrollton, Texas",1019,954
469,Cedar Hill,TX,2,1,32.5871635,-96.9621115125276,Texas,"Cedar Hill, Texas",314,954
470,Center,TX,1,0,31.793327,-94.1775684510208,Texas,"Center, Texas",2230,954
471,Cibolo,TX,1,0,29.561618,-98.2269553,Texas,"Cibolo, Texas",15349,954
472,Cleburne,TX,1,0,32.357629,-97.4085918928333,Texas,"Cleburne, Texas",14972,954
473,Colleyville,TX,1,0,32.8919275,-97.1555057525678,Texas,"Colleyville, Texas",22807,954
474,Columbus,TX,1,0,29.7042695,-96.5548608883207,Texas,"Columbus, Texas",189885,954
475,Comal County,TX,1,0,29.8180854,-98.2889577956694,Texas,"Comal County, Texas",108472,954
476,Conroe,TX,4,0,30.393222,-95.6401663824086,Texas,"Conroe, Texas",56207,954
477,Copperas Cove,TX,1,0,31.124062,-97.9030785,Texas,"Copperas Cove, Texas",32032,954
478,Corinth,TX,1,0,33.141452,-97.0673423734059,Texas,"Corinth, Texas",70,954
479,Corpus Christi,TX,7,1,27.823713,-97.4173979435294,Texas,"Corpus Christi, Texas",305215,954
480,Corsicana,TX,1,1,32.0756495,-96.4952675542771,Texas,"Corsicana, Texas",23770,954
481,Crosby,TX,1,0,33.4089784,-101.1483729,Texas,"Crosby, Texas",2386,954
482,Crowley,TX,1,0,32.5767335,-97.3585231380221,Texas,"Crowley, Texas",176,954
483,Cypress,TX,5,2,29.9691116,-95.6971686,Texas,"Cypress, Texas",47802,954
484,Dale,TX,1,0,29.9274436,-97.5644418,Texas,"Dale, Texas",50251,954
485,Dallas,TX,90,14,32.7801052,-96.8000082,Texas,"Dallas, Texas",43820,954
486,DeSoto,TX,1,3,29.390781,-98.526798,Texas,"DeSoto, Texas",34862,954
487,Deadwood,TX,1,0,32.1398851,-94.1418587,Texas,"Deadwood, Texas",1270,954
489,Denison,TX,1,0,33.706201,-96.5844466439732,Texas,"Denison, Texas",1558,954
490,Denton,TX,3,3,33.2375905,-97.1306609813245,Texas,"Denton, Texas",250,954
491,Denton County,TX,1,0,33.0265105,-96.8635139,Texas,"Denton County, Texas",662614,954
492,Donna,TX,3,0,26.1702082,-98.0522376,Texas,"Donna, Texas",15798,954
493,Dove Creek,TX,1,0,30.5056054,-97.6717672,Texas,"Dove Creek, Texas",735,954
494,Duncanville,TX,1,1,32.647691,-96.9170435699782,Texas,"Duncanville, Texas",38524,954
495,Eden,TX,1,0,31.2161476,-99.8454772,Texas,"Eden, Texas",405,954
496,Edinburg,TX,1,0,26.2527695,-98.19367824779208,Texas,"Edinburg, Texas",1078,954
497,El Paso,TX,10,2,31.81113155,-106.501349289734,Texas,"El Paso, Texas",622263,954
498,Elgin,TX,1,0,30.35517,-97.3917615706706,Texas,"Elgin, Texas",108188,954
499,Euless,TX,2,0,32.84610745,-97.06673834300648,Texas,"Euless, Texas",51277,954
500,Fairview,TX,2,0,33.1578952,-96.6316593,Texas,"Fairview, Texas",446,954
501,Fannett,TX,1,0,29.9260395,-94.2504458,Texas,"Fannett, Texas",2548,954
502,Flower Mound,TX,2,0,33.036426,-97.1165370693961,Texas,"Flower Mound, Texas",64669,954
503,Forney,TX,1,1,32.74630795,-96.4516126964338,Texas,"Forney, Texas",14661,954
504,Fort Bend County,TX,3,0,29.5253232,-95.7449643220456,Texas,"Fort Bend County, Texas",585375,954
506,Fort Worth,TX,41,7,32.693397,-97.4706709166667,Texas,"Fort Worth, Texas",741206,954
507,Franklin County,TX,1,0,33.175972,-95.2183923866996,Texas,"Franklin County, Texas",31704,954
508,Freeport,TX,1,0,28.9427765,-95.3546011243064,Texas,"Freeport, Texas",1787,954
509,Galveston,TX,1,0,29.2332775,-94.8601599769047,Texas,"Galveston, Texas",1311,954
510,Garland,TX,5,1,32.912624,-96.6388833,Texas,"Garland, Texas",242,954
511,Glen Rose,TX,2,0,32.243494,-97.7495398202366,Texas,"Glen Rose, Texas",2444,954
512,Godley,TX,1,0,32.449029,-97.5266886,Texas,"Godley, Texas",601,954
513,Gonzales County,TX,1,0,29.447222,-97.5025853123827,Texas,"Gonzales County, Texas",19807,954
514,Granbury,TX,3,0,32.433278,-97.759011,Texas,"Granbury, Texas",7978,954
515,Grand Prairie,TX,7,3,32.65764395,-97.0285689717472,Texas,"Grand Prairie, Texas",909,954
516,Grapevine,TX,2,1,32.936068,-97.0673719522356,Texas,"Grapevine, Texas",46334,954
517,Greenville,TX,2,0,33.112278,-96.117602582763,Texas,"Greenville, Texas",8135,954
518,Haltom City,TX,1,0,32.8202545,-97.27055730996832,Texas,"Haltom City, Texas",42409,954
519,Hardin County,TX,1,0,30.3142215,-94.3879143966056,Texas,"Hardin County, Texas",4320,954
520,Harlingen,TX,1,0,26.1906306,-97.6961026,Texas,"Harlingen, Texas",64849,954
521,Harper,TX,1,0,30.2999195,-99.2442144,Texas,"Harper, Texas",114,954
522,Harris County,TX,22,3,29.8152236,-94.9176032,Texas,"Harris County, Texas",32024,954
523,Harrison County,TX,1,0,32.5599535,-94.3728164200457,Texas,"Harrison County, Texas",39364,954
525,Hearne,TX,1,0,30.87819,-96.5956469060742,Texas,"Hearne, Texas",4459,954
527,Henderson,TX,1,0,32.0884931,-95.4718003,Texas,"Henderson, Texas",255,954
528,Hereford,TX,1,0,34.8150622,-102.3977036,Texas,"Hereford, Texas",2997,954
529,Hidalgo County,TX,1,0,26.410046,-98.1876470270865,Texas,"Hidalgo County, Texas",4894,954
530,Highland Village,TX,1,0,33.09461,-97.0577207699745,Texas,"Highland Village, Texas",254,954
531,Highlands,TX,2,0,29.818836,-95.0560404,Texas,"Highlands, Texas",98786,954
532,Hitchcock,TX,1,1,29.261449,-95.0175285670541,Texas,"Hitchcock, Texas",2908,954
533,Honey Grove,TX,1,1,33.5834377,-95.9099681,Texas,"Honey Grove, Texas",1668,954
534,Houston,TX,204,32,29.9519265,-95.5409169840524,Texas,"Houston, Texas",101547,954
535,Hubbard,TX,1,0,31.8484935,-96.797215,Texas,"Hubbard, Texas",845,954
537,Ingleside,TX,1,0,27.8666025,-97.2067479147068,Texas,"Ingleside, Texas",9387,954
538,Irving,TX,2,2,32.862876,-96.9791392558391,Texas,"Irving, Texas",495,954
539,Jasper,TX,1,0,30.2743745,-93.9056287,Texas,"Jasper, Texas",14352,954
540,Katy,TX,2,2,29.7929303,-95.82966514656488,Texas,"Katy, Texas",14102,954
541,Kaufman,TX,1,0,32.565973,-96.3067015913235,Texas,"Kaufman, Texas",6703,954
542,Keller,TX,1,1,32.9357105,-97.2289692714149,Texas,"Keller, Texas",33,954
543,Kerrville,TX,1,0,30.0474332,-99.1403189,Texas,"Kerrville, Texas",22347,954
544,Killeen,TX,9,3,31.1171194,-97.7277959,Texas,"Killeen, Texas",127921,954
545,Kountze,TX,1,0,30.37432,-94.31679797679,Texas,"Kountze, Texas",2123,954
546,Lancaster,TX,3,0,32.598302,-96.7751211128244,Texas,"Lancaster, Texas",156633,954
547,Laredo,TX,3,0,27.506407,-99.5075421,Texas,"Laredo, Texas",198,954
549,League City,TX,1,0,29.5074538,-95.0949303,Texas,"League City, Texas",83560,954
550,Leander,TX,1,1,30.57814,-97.8425888879418,Texas,"Leander, Texas",26521,954
551,Lewisville,TX,2,0,33.042576,-96.9662897276534,Texas,"Lewisville, Texas",1280,954
552,Little Elm,TX,1,1,33.1626194,-96.9375051,Texas,"Little Elm, Texas",25898,954
553,Live Oak,TX,1,1,28.170008,-97.8471215,Texas,"Live Oak, Texas",8392,954
554,Longview,TX,2,1,32.5065765,-94.7515098851302,Texas,"Longview, Texas",153,954
556,Lubbock,TX,9,1,33.5778631,-101.8551665,Texas,"Lubbock, Texas",229573,954
557,Mansfield,TX,1,1,32.5643835,-97.1121036778354,Texas,"Mansfield, Texas",1139,954
558,Marshall,TX,1,0,32.5311225,-94.3446130081966,Texas,"Marshall, Texas",93019,954
559,Maypearl,TX,2,0,32.3132003,-97.0116691,Texas,"Maypearl, Texas",934,954
560,McAllen,TX,1,0,26.2260035,-98.2373177181604,Texas,"McAllen, Texas",129877,954
561,McCamey,TX,1,0,31.135591,-102.2244427,Texas,"McCamey, Texas",1887,954
562,McGregor,TX,1,0,31.4388265,-97.40673997914688,Texas,"McGregor, Texas",871,954
563,McKinney,TX,1,0,33.1976496,-96.6154471,Texas,"McKinney, Texas",63,954
564,Mercedes,TX,2,0,26.1497977,-97.9136112,Texas,"Mercedes, Texas",15570,954
565,Mesquite,TX,3,3,32.7666103,-96.599472,Texas,"Mesquite, Texas",15276,954
566,Midland,TX,1,1,31.83688,-102.0103767,Texas,"Midland, Texas",325,954
567,Midland County,TX,1,0,31.86918585,-102.031586918774,Texas,"Midland County, Texas",83629,954
568,Mission,TX,1,0,26.1985485,-98.3102862046617,Texas,"Mission, Texas",3972,954
569,Montgomery County,TX,2,1,30.1791039,-95.1623323,Texas,"Montgomery County, Texas",229363,954
570,Morgan's Point,TX,1,1,29.6793945,-94.9899276,Texas,"Morgan's Point, Texas",339,954
571,Mount Enterprise,TX,1,0,31.9179473,-94.6810439,Texas,"Mount Enterprise, Texas",447,954
572,Nacogdoches County,TX,2,0,31.536146,-94.59451605196632,Texas,"Nacogdoches County, Texas",64524,954
573,Natalia,TX,1,0,29.189684,-98.8625269,Texas,"Natalia, Texas",1431,954
574,New Boston,TX,1,0,33.460448,-94.42011157306632,Texas,"New Boston, Texas",683,954
575,New Braunfels,TX,2,0,29.7029248,-98.12469,Texas,"New Braunfels, Texas",57740,954
577,North Richland Hills,TX,1,0,32.8601325,-97.2120548962232,Texas,"North Richland Hills, Texas",63343,954
579,Oak Point,TX,1,0,33.17777,-96.9888556964332,Texas,"Oak Point, Texas",2786,954
580,Odessa,TX,3,1,31.8457149,-102.367687,Texas,"Odessa, Texas",364,954
581,Palmhurst,TX,1,0,26.2584053,-98.3180712,Texas,"Palmhurst, Texas",2607,954
582,Palmview,TX,4,1,26.2283965,-98.3674967677518,Texas,"Palmview, Texas",5460,954
583,Pampa,TX,1,0,35.547907,-100.967731112225,Texas,"Pampa, Texas",17994,954
584,Paris,TX,6,0,33.6751155,-95.55026624777032,Texas,"Paris, Texas",3532,954
585,Parker County,TX,1,0,32.777937,-97.8038253310299,Texas,"Parker County, Texas",116927,954
586,Pasadena,TX,1,0,29.6910625,-95.2091006,Texas,"Pasadena, Texas",137122,954
587,Pearland,TX,4,2,29.547838,-95.3838393834951,Texas,"Pearland, Texas",91252,954
588,Pearsall,TX,1,1,28.8921939,-99.095033,Texas,"Pearsall, Texas",9146,954
589,Plano,TX,2,1,33.0136764,-96.6925096,Texas,"Plano, Texas",10856,954
590,Pleasant Grove,TX,2,0,32.0212766,-94.9554951,Texas,"Pleasant Grove, Texas",10110,954
591,Port Arthur,TX,4,3,29.8988258,-93.9287815,Texas,"Port Arthur, Texas",53818,954
593,Quitman,TX,1,1,32.793739,-95.4464573960389,Texas,"Quitman, Texas",762,954
594,Rice,TX,4,1,32.2437586,-96.4985967,Texas,"Rice, Texas",338,954
595,Richardson,TX,1,1,32.9481789,-96.7297206,Texas,"Richardson, Texas",536,954
596,Richmond,TX,2,0,29.5893005,-95.76672995889888,Texas,"Richmond, Texas",103701,954
597,Robinson,TX,1,1,31.4676687,-97.1147226,Texas,"Robinson, Texas",7713,954
598,Rockwall,TX,1,3,32.8967899,-96.2982136,Texas,"Rockwall, Texas",37490,954
599,Rusk,TX,1,0,31.8762825,-94.5339953,Texas,"Rusk, Texas",118,954
600,San Angelo,TX,1,1,31.432144,-100.454467551013,Texas,"San Angelo, Texas",93200,954
601,San Antonio,TX,64,12,29.4246002,-98.4951405,Texas,"San Antonio, Texas",1138,954
603,San Marcos,TX,1,1,29.8826436,-97.9405828,Texas,"San Marcos, Texas",83781,954
604,Sand Springs,TX,1,0,32.2826198,-101.3509559,Texas,"Sand Springs, Texas",18906,954
606,Seminole,TX,1,1,32.7247135,-102.650385348958,Texas,"Seminole, Texas",17233,954
607,Snook,TX,1,0,30.488816,-96.4644102,Texas,"Snook, Texas",511,954
608,Snyder,TX,1,0,32.712745,-100.912869765563,Texas,"Snyder, Texas",300,954
609,Southlake,TX,1,0,32.962582,-97.1511351509909,Texas,"Southlake, Texas",26575,954
610,Spring,TX,4,1,30.0798826,-95.4172549,Texas,"Spring, Texas",894,954
611,Stafford,TX,4,0,29.6234075,-95.5642096263499,Texas,"Stafford, Texas",12087,954
613,Tarrant County,TX,1,0,32.6316957,-97.0737574,Texas,"Tarrant County, Texas",1809034,954
614,Taylor Lake Village,TX,1,0,29.5774867,-95.0574477394978,Texas,"Taylor Lake Village, Texas",3544,954
615,Temple,TX,3,0,31.098207,-97.3427847,Texas,"Temple, Texas",4228,954
616,Terrell,TX,3,3,29.9351964,-101.8203006,Texas,"Terrell, Texas",9315,954
617,Texarkana,TX,2,2,33.441418,-94.0738243416923,Texas,"Texarkana, Texas",29919,954
618,Texas City,TX,2,0,29.4336705,-94.9193192484269,Texas,"Texas City, Texas",45099,954
620,Three Rivers,TX,1,0,28.4602717,-98.1825071,Texas,"Three Rivers, Texas",7811,954
622,Tyler,TX,4,2,32.330625,-95.3074208213444,Texas,"Tyler, Texas",1143,954
623,Universal City,TX,1,0,29.5480071,-98.2911235,Texas,"Universal City, Texas",18530,954
624,Vidor,TX,1,0,30.138118,-93.9843424111247,Texas,"Vidor, Texas",10579,954
625,Waco,TX,5,2,31.549333,-97.1466695,Texas,"Waco, Texas",516,954
626,Wall,TX,2,0,31.3740524,-100.3075869,Texas,"Wall, Texas",209,954
627,Waxahachie,TX,2,1,32.40549,-96.838917718217,Texas,"Waxahachie, Texas",29621,954
628,Waxahachie ,TX,1,0,32.388547,-96.9288416859837,Texas,"Waxahachie , Texas",29621,954
629,Weatherford,TX,3,0,32.7647075,-97.6818919554255,Texas,"Weatherford, Texas",10833,954
630,Webster,TX,1,1,29.5377315,-95.1182645,Texas,"Webster, Texas",785,954
631,Weslaco,TX,2,0,26.15592,-97.9804635472487,Texas,"Weslaco, Texas",35670,954
632,Wharton,TX,1,0,29.255248,-95.8998532,Texas,"Wharton, Texas",358,954
633,Wichita Falls,TX,5,0,33.9161075,-98.5067371043467,Texas,"Wichita Falls, Texas",104553,954
634,Wolfforth,TX,2,0,33.5059189,-102.0090575,Texas,"Wolfforth, Texas",3670,954
635,Bloomburg,TX,0,1,33.1379088,-94.0574061,Texas,"Bloomburg, Texas",404,954
636,Brownwood,TX,0,1,31.7337655,-98.9858348492006,Texas,"Brownwood, Texas",19288,954
637,Canton,TX,0,1,32.560651,-95.871267561147,Texas,"Canton, Texas",10292,954
638,Concho County,TX,0,1,31.3336505,-99.8596769413311,Texas,"Concho County, Texas",4087,954
639,Elmendorf,TX,0,1,29.2581166,-98.301671989788,Texas,"Elmendorf, Texas",1488,954
640,Fairfield,TX,0,1,31.7164755,-96.172884780441,Texas,"Fairfield, Texas",11117,954
641,Gilmer,TX,0,1,32.729852,-94.952109572207,Texas,"Gilmer, Texas",28292,954
643,Joshua,TX,0,1,32.4615291,-97.3880732,Texas,"Joshua, Texas",510,954
644,Kilgore,TX,0,1,32.39331,-94.8647647346557,Texas,"Kilgore, Texas",77,954
645,Nederland,TX,0,1,29.9827965,-94.001875861322,Texas,"Nederland, Texas",1445,954
646,Panther Creek,TX,0,1,30.1658518,-95.4923714,Texas,"Panther Creek, Texas",291,954
647,Round Rock,TX,0,2,30.572587,-97.6483833986758,Texas,"Round Rock, Texas",99887,954
648,Saginaw,TX,0,1,32.85141,-97.3658154301618,Texas,"Saginaw, Texas",51508,954
650,Willacy County,TX,0,1,26.45598445,-97.58654844151008,Texas,"Willacy County, Texas",22134,954
653,Augusta,MT,1,0,47.4927251,-112.3922458,Montana,"Augusta, Montana",2199,29
654,Belgrade,MT,1,0,45.7732787,-111.1845352,Montana,"Belgrade, Montana",3189,29
655,Billings,MT,11,1,45.7874957,-108.49607,Montana,"Billings, Montana",2416,29
656,Bozeman,MT,1,0,45.6799842,-111.0446748,Montana,"Bozeman, Montana",37280,29
657,Butte,MT,1,0,45.9838436,-112.5007277,Montana,"Butte, Montana",220000,29
658,Cedar Hill,MT,1,0,46.0938178,-111.4057971,Montana,"Cedar Hill, Montana",314,29
659,Evergreen,MT,1,0,48.2258788,-114.2762514,Montana,"Evergreen, Montana",3944,29
660,Florence,MT,1,0,46.6315897,-114.0789959,Montana,"Florence, Montana",39319,29
661,Great Falls,MT,1,0,47.506188,-111.231405298865,Montana,"Great Falls, Montana",58505,29
662,Havre,MT,1,0,48.549999,-109.6840887,Montana,"Havre, Montana",9310,29
663,Helena,MT,2,0,46.5927122,-112.036109,Montana,"Helena, Montana",16793,29
664,Missoula,MT,2,0,46.8795445,-113.921434505587,Montana,"Missoula, Montana",66788,29
666,Townsend,MT,1,0,46.3190976,-111.5208023,Montana,"Townsend, Montana",2049,29
667,Whitefish,MT,3,0,48.4099506,-114.3342212,Montana,"Whitefish, Montana",575,29
669,Adelanto,CA,2,1,34.579452,-117.336473432733,California,"Adelanto, California",31765,1340
670,Alameda,CA,1,0,37.7652065,-122.2416355,California,"Alameda, California",73812,1340
671,Alameda County,CA,2,0,37.67988045,-121.90767370057,California,"Alameda County, California",1510271,1340
672,Alhambra,CA,2,0,34.0855425,-118.134419455061,California,"Alhambra, California",83089,1340
674,Anaheim,CA,4,0,33.8347516,-117.911732,California,"Anaheim, California",336265,1340
676,Antioch,CA,11,1,37.9755365,-121.793642692233,California,"Antioch, California",102372,1340
677,Apple Valley,CA,2,0,34.537838,-117.219160542915,California,"Apple Valley, California",69135,1340
678,Arcata,CA,1,1,40.8665166,-124.0828396,California,"Arcata, California",17231,1340
680,Arlington Heights,CA,1,0,40.055725,-120.8902318,California,"Arlington Heights, California",75101,1340
682,Arroyo Grande,CA,3,0,35.1241377,-120.580416690972,California,"Arroyo Grande, California",17252,1340
683,Artesia,CA,2,0,33.8611649,-118.0782044,California,"Artesia, California",16522,1340
684,Athens,CA,1,0,33.9200153,-118.2811844,California,"Athens, California",21897,1340
685,Atwater,CA,2,1,37.353364,-120.603307202474,California,"Atwater, California",28168,1340
686,Auburn,CA,1,0,38.89575015,-121.071632729018,California,"Auburn, California",53380,1340
687,Azusa,CA,2,0,34.1338751,-117.9056046,California,"Azusa, California",46361,1340
688,Bakersfield,CA,18,2,35.223234,-118.953616630358,California,"Bakersfield, California",347483,1340
689,Baldwin Park,CA,2,0,34.0811095,-117.964517855105,California,"Baldwin Park, California",75390,1340
691,Banning,CA,2,0,33.96869745,-116.933657179283,California,"Banning, California",29603,1340
692,Barstow,CA,2,0,34.8957684,-117.0172077,California,"Barstow, California",22639,1340
693,Bayview,CA,2,0,40.7726266,-124.1839502,California,"Bayview, California",383,1340
695,Bell Gardens,CA,1,0,33.96561315,-118.152893298018,California,"Bell Gardens, California",42072,1340
696,Bellflower,CA,1,0,33.8825705,-118.1167679,California,"Bellflower, California",76616,1340
697,Berkeley,CA,5,0,37.8707755,-122.301852520212,California,"Berkeley, California",112580,1340
698,Bonita,CA,1,0,32.6648235,-117.015868912261,California,"Bonita, California",284,1340
700,Brawley,CA,1,0,33.0185295,-115.51593622179,California,"Brawley, California",24953,1340
701,Brea,CA,1,0,33.9181945,-117.8994423,California,"Brea, California",39282,1340
702,Burlingame,CA,1,0,37.58788275,-122.362741659182,California,"Burlingame, California",28806,1340
705,Calexico,CA,1,0,32.6858415,-115.491576158431,California,"Calexico, California",38572,1340
706,California,CA,1,0,37.786376,-122.2902807,California,"California, California",37253956,1340
707,California City,CA,1,1,35.1457415,-117.957901319624,California,"California City, California",14120,1340
709,Campbell,CA,2,1,37.28077545,-121.94971703802,California,"Campbell, California",39349,1340
710,Capitola,CA,1,0,36.97481995,-121.956979349893,California,"Capitola, California",9918,1340
711,Carlsbad,CA,2,0,33.1580933,-117.3505939,California,"Carlsbad, California",105328,1340
712,Carson,CA,3,0,33.8394267,-118.247031555986,California,"Carson, California",91714,1340
714,Ceres,CA,1,0,37.5972605,-120.94785635634,California,"Ceres, California",45417,1340
715,Chico,CA,1,1,39.7578465,-121.825710737511,California,"Chico, California",86187,1340
716,Chino Hills,CA,2,0,33.9926803,-117.760056,California,"Chino Hills, California",74799,1340
717,Citrus Heights,CA,3,0,38.6931659,-121.293648092323,California,"Citrus Heights, California",83301,1340
718,Clearlake,CA,1,0,38.9573975,-122.626309056056,California,"Clearlake, California",15250,1340
719,Coachella,CA,1,0,33.6795519,-116.176338,California,"Coachella, California",40704,1340
721,Colton,CA,1,0,34.05710205,-117.323778193832,California,"Colton, California",52154,1340
722,Commerce,CA,1,0,33.99507245,-118.144500755116,California,"Commerce, California",12823,1340
723,Compton,CA,15,1,33.9136248,-118.2468201,California,"Compton, California",96455,1340
724,Corona,CA,2,3,33.8594315,-117.551191741327,California,"Corona, California",152374,1340
726,Crescent City,CA,1,0,41.852958,-124.149809424351,California,"Crescent City, California",7643,1340
727,Cudahy,CA,1,0,33.9626205,-118.181598022271,California,"Cudahy, California",23805,1340
728,Culver City,CA,1,0,34.0211224,-118.3964665,California,"Culver City, California",38883,1340
731,Delano,CA,4,0,35.750376,-119.324115526073,California,"Delano, California",53041,1340
732,Delhi,CA,2,0,37.4339725,-120.776840006029,California,"Delhi, California",460,1340
733,Desert Hot Springs,CA,3,1,33.9614721,-116.553902282872,California,"Desert Hot Springs, California",25938,1340
734,Dinuba,CA,1,0,36.5432837,-119.3870656,California,"Dinuba, California",21453,1340
735,Dos Palos,CA,2,0,36.985468,-120.63113900795,California,"Dos Palos, California",4950,1340
736,Downey,CA,4,0,33.9400143,-118.1325688,California,"Downey, California",111772,1340
737,Duarte,CA,1,0,34.1394513,-117.9772873,California,"Duarte, California",21321,1340
739,East Palo Alto,CA,6,0,37.4688273,-122.1410751,California,"East Palo Alto, California",28155,1340
741,El Cajon,CA,1,0,32.7947731,-116.9625269,California,"El Cajon, California",99478,1340
742,El Dorado County,CA,1,0,38.851018,-119.9339696,California,"El Dorado County, California",181058,1340
743,El Monte,CA,1,2,34.0711695,-118.037854038196,California,"El Monte, California",113475,1340
747,Elk Grove,CA,1,0,38.4087993,-121.3716178,California,"Elk Grove, California",153015,1340
748,Emeryville,CA,1,0,37.838553,-122.302828817922,California,"Emeryville, California",10080,1340
749,Encinitas,CA,2,0,33.0369867,-117.2919818,California,"Encinitas, California",59518,1340
750,Encino,CA,1,0,34.1588478,-118.500478,California,"Encino, California",82,1340
751,Escondido,CA,3,0,33.1216751,-117.0814849,California,"Escondido, California",143911,1340
752,Exeter,CA,1,0,36.2960613,-119.1420517,California,"Exeter, California",10334,1340
754,Fairfield,CA,2,0,38.23362,-122.076905389269,California,"Fairfield, California",11117,1340
756,Farmersville,CA,1,0,36.2977283,-119.2067767,California,"Farmersville, California",10588,1340
757,Ferndale,CA,1,0,40.580644,-124.262242561122,California,"Ferndale, California",1371,1340
758,Fillmore,CA,1,0,34.3985613,-118.9125093,California,"Fillmore, California",15002,1340
759,Fontana,CA,4,3,34.1088175,-117.459930142996,California,"Fontana, California",196069,1340
761,Forestville,CA,3,0,38.4833785,-122.861585962542,California,"Forestville, California",136,1340
763,Fremont,CA,2,0,37.5482697,-121.9885719,California,"Fremont, California",214089,1340
765,Fresno,CA,27,4,36.7322115,-119.69970961134,California,"Fresno, California",494665,1340
766,Fresno County,CA,1,0,36.7463883,-119.673520541227,California,"Fresno County, California",930450,1340
767,Fullerton,CA,1,0,33.8725893,-117.9229191,California,"Fullerton, California",135161,1340
768,Galt,CA,3,0,38.300719,-121.330943415758,California,"Galt, California",23647,1340
769,Garden Grove,CA,3,1,33.7746292,-117.9463717,California,"Garden Grove, California",170883,1340
770,Gardena,CA,1,0,33.8883302,-118.3070892,California,"Gardena, California",58829,1340
772,Gilroy,CA,1,0,37.0092712,-121.589923029106,California,"Gilroy, California",48821,1340
774,Glendale,CA,1,0,34.1423455,-118.2483671,California,"Glendale, California",226721,1340
775,Greenfield,CA,1,0,35.2688739,-119.0028731,California,"Greenfield, California",16330,1340
778,Hawthorne,CA,2,0,33.9140135,-118.344055566788,California,"Hawthorne, California",84293,1340
779,Hayward,CA,7,0,37.6688205,-122.0807964,California,"Hayward, California",144186,1340
780,Hemet,CA,4,3,33.722095,-117.006519014514,California,"Hemet, California",78657,1340
781,Highland Park,CA,1,0,34.1099469,-118.1969828,California,"Highland Park, California",230,1340
783,Hollywood,CA,2,0,34.1028268,-118.3299899,California,"Hollywood, California",1000,1340
784,Humboldt County,CA,1,0,40.7335541,-123.879211498361,California,"Humboldt County, California",134623,1340
786,Huntington Beach,CA,4,0,33.6920535,-117.999249145138,California,"Huntington Beach, California",189992,1340
787,Huntington Park,CA,1,0,33.9816812,-118.2250725,California,"Huntington Park, California",58114,1340
788,Imperial,CA,2,0,32.7892118,-114.5559618,California,"Imperial, California",14758,1340
789,Indio,CA,2,0,33.74385575,-116.197037830001,California,"Indio, California",76036,1340
790,Inglewood,CA,8,3,33.9616801,-118.3531311,California,"Inglewood, California",109673,1340
792,Irvine,CA,1,1,33.6862707,-117.8258199,California,"Irvine, California",212375,1340
793,Ivanhoe,CA,1,0,36.385024,-119.220297914299,California,"Ivanhoe, California",464,1340
796,Kerman,CA,1,0,36.7221815,-120.06246080492,California,"Kerman, California",13544,1340
797,Kern County,CA,1,0,35.2934231,-118.720389325669,California,"Kern County, California",839631,1340
798,King City,CA,4,1,36.226628,-121.15856737655,California,"King City, California",12874,1340
800,La Mesa,CA,1,0,32.7678288,-117.0230839,California,"La Mesa, California",57065,1340
802,La Puente,CA,2,0,34.0331365,-117.952190575235,California,"La Puente, California",39816,1340
803,La Verne,CA,1,0,34.1008426,-117.7678355,California,"La Verne, California",31063,1340
804,Laguna Hills,CA,1,0,33.65719445,-117.349398959129,California,"Laguna Hills, California",30344,1340
805,Laguna Niguel,CA,1,0,33.5225261,-117.7075526,California,"Laguna Niguel, California",62979,1340
806,Lake Elsinore,CA,1,1,33.6680772,-117.3272615,California,"Lake Elsinore, California",51821,1340
808,Lakewood,CA,2,0,33.84713195,-118.133588266925,California,"Lakewood, California",80048,1340
809,Lancaster,CA,2,1,34.6998995,-118.187362477583,California,"Lancaster, California",156633,1340
810,Lawndale,CA,1,0,33.88711,-118.3531481,California,"Lawndale, California",32769,1340
811,Le Grand,CA,1,0,37.217724,-120.257260197963,California,"Le Grand, California",938,1340
814,Live Oak,CA,2,0,36.990384,-121.978753299844,California,"Live Oak, California",8392,1340
815,Livermore,CA,1,0,37.731528,-121.731063,California,"Livermore, California",80968,1340
816,Livingston,CA,1,0,37.3868826,-120.7235329,California,"Livingston, California",3485,1340
817,Long Beach,CA,29,4,33.7774658,-118.1884871,California,"Long Beach, California",462257,1340
818,Los Angeles,CA,286,17,34.0501713,-118.2419714,California,"Los Angeles, California",3792621,1340
819,Los Angeles ,CA,1,0,34.0536781,-118.2427025,California,"Los Angeles , California",3792621,1340
820,Los Angeles County,CA,1,0,34.24140515,-118.145520591821,California,"Los Angeles County, California",9818605,1340
821,Los Banos,CA,3,0,37.0655625,-120.841982360549,California,"Los Banos, California",35972,1340
823,Lynwood,CA,3,0,33.925251,-118.203514238926,California,"Lynwood, California",69772,1340
824,Madera,CA,5,0,36.942141,-120.171452075392,California,"Madera, California",61416,1340
825,Madera County,CA,1,0,37.2705719,-119.635709495741,California,"Madera County, California",150865,1340
829,Maywood,CA,2,0,33.98833675,-118.188429638249,California,"Maywood, California",27395,1340
830,McFarland,CA,2,0,35.677856,-119.229312899915,California,"McFarland, California",12707,1340
831,Menifee,CA,2,2,33.6864432,-117.1770437,California,"Menifee, California",302,1340
832,Merced,CA,2,0,37.3029568,-120.4843269,California,"Merced, California",78958,1340
833,Merced County,CA,1,0,37.1869636,-120.609426370155,California,"Merced County, California",255793,1340
834,Milpitas,CA,1,0,37.43143895,-121.885265953734,California,"Milpitas, California",66790,1340
835,Modesto,CA,12,2,37.636724,-120.90148524417,California,"Modesto, California",201165,1340
836,Monrovia,CA,1,0,34.201558,-118.1734475,California,"Monrovia, California",36590,1340
837,Montclair,CA,2,0,34.07171275,-117.697687709851,California,"Montclair, California",36664,1340
838,Monterey,CA,1,0,36.5845085,-121.866819010438,California,"Monterey, California",27810,1340
839,Moreno Valley,CA,5,1,33.921961,-117.200107316579,California,"Moreno Valley, California",193365,1340
840,Mount Hope,CA,1,0,32.7142185,-117.1075309,California,"Mount Hope, California",1103,1340
842,Napa,CA,1,0,38.32377705,-122.3355205746,California,"Napa, California",76915,1340
843,National City,CA,1,0,32.6781085,-117.0991967,California,"National City, California",58582,1340
844,Newark,CA,1,0,37.521024,-122.026348406922,California,"Newark, California",1176,1340
845,Newport Beach,CA,1,1,33.6170092,-117.9294401,California,"Newport Beach, California",85186,1340
846,Norco,CA,1,0,33.9277225,-117.555622303611,California,"Norco, California",27063,1340
847,Norwalk,CA,1,0,33.9164121,-118.0718578,California,"Norwalk, California",105549,1340
849,Oakdale,CA,1,0,37.7665947,-120.8471545,California,"Oakdale, California",20675,1340
850,Oakland,CA,71,14,37.8043808,-122.2708166,California,"Oakland, California",390724,1340
851,Oceanside,CA,2,1,33.1958696,-117.3794834,California,"Oceanside, California",167086,1340
852,Ontario,CA,3,0,34.0633443,-117.6508876,California,"Ontario, California",163924,1340
853,Orange,CA,3,1,33.7878549,-117.8530908,California,"Orange, California",136416,1340
854,Orange County,CA,1,0,33.6671869,-117.720593399723,California,"Orange County, California",3010232,1340
855,Orange Cove,CA,1,0,36.606639,-119.334362302996,California,"Orange Cove, California",9078,1340
858,Oroville,CA,3,1,39.4900785,-121.564487694774,California,"Oroville, California",15546,1340
859,Oxnard,CA,7,3,34.1975048,-119.1770516,California,"Oxnard, California",197899,1340
861,Palermo,CA,2,0,39.435057,-121.535258923712,California,"Palermo, California",1535,1340
862,Palm Desert,CA,1,1,33.7404645,-116.369105578632,California,"Palm Desert, California",48445,1340
863,Palmdale,CA,5,1,34.585428,-118.124321485448,California,"Palmdale, California",152750,1340
864,Palmetto,CA,1,0,33.7453584,-117.7771984,California,"Palmetto, California",12606,1340
865,Palo Alto,CA,1,0,37.442156,-122.1634472,California,"Palo Alto, California",64403,1340
866,Paramount,CA,2,0,33.8992926,-118.164949839115,California,"Paramount, California",54098,1340
867,Pasadena,CA,5,0,34.18455365,-118.173559873254,California,"Pasadena, California",137122,1340
869,Patterson,CA,1,0,37.471623,-121.1296949,California,"Patterson, California",452,1340
870,Perris,CA,5,0,33.7919875,-117.224335913065,California,"Perris, California",68386,1340
871,Pico Rivera,CA,1,0,33.9830688,-118.096735,California,"Pico Rivera, California",62942,1340
872,Pittsburg,CA,2,1,38.021408,-121.885031239909,California,"Pittsburg, California",63264,1340
873,Pixley,CA,2,0,35.9685649,-119.2917785,California,"Pixley, California",589,1340
874,Placentia,CA,1,0,33.8722371,-117.8703363,California,"Placentia, California",50533,1340
875,Placerville,CA,1,0,38.730703,-120.796312705405,California,"Placerville, California",10389,1340
877,Pomona,CA,27,2,34.0552886,-117.7522793,California,"Pomona, California",149058,1340
878,Port Hueneme,CA,1,0,34.159363,-119.202560883767,California,"Port Hueneme, California",21723,1340
879,Porterville,CA,6,1,36.0625905,-118.982960627645,California,"Porterville, California",54165,1340
880,Portola,CA,1,0,39.8194815,-120.467319215198,California,"Portola, California",2104,1340
881,Rancho Cordova,CA,2,0,38.5676485,-121.223249320424,California,"Rancho Cordova, California",64776,1340
882,Rancho Cucamonga,CA,1,0,34.1242304,-117.565564610376,California,"Rancho Cucamonga, California",165269,1340
883,Red Bluff,CA,2,0,40.182967,-122.241172753813,California,"Red Bluff, California",14076,1340
884,Redding,CA,2,0,40.5018995,-122.385954041643,California,"Redding, California",89861,1340
885,Redlands,CA,1,0,34.072662,-117.093417,California,"Redlands, California",68747,1340
886,Redondo Beach,CA,3,0,33.8491816,-118.3884078,California,"Redondo Beach, California",66748,1340
888,Rialto,CA,3,0,34.1064001,-117.3703235,California,"Rialto, California",99171,1340
889,Richmond,CA,13,1,37.9357576,-122.3477486,California,"Richmond, California",103701,1340
890,Ridgecrest,CA,1,1,35.6225064,-117.6699414,California,"Ridgecrest, California",27616,1340
892,Riverside,CA,8,0,33.9458443,-117.410096815875,California,"Riverside, California",2208,1340
893,Rocklin,CA,1,0,38.7907339,-121.2357828,California,"Rocklin, California",56974,1340
896,Rosemead,CA,1,1,34.0676169,-118.0879763,California,"Rosemead, California",53764,1340
897,Rosemont,CA,1,0,38.5475445,-121.356506713716,California,"Rosemont, California",4202,1340
898,Roseville,CA,1,0,38.7233728,-121.185875818103,California,"Roseville, California",118788,1340
899,Sacramento,CA,37,4,38.5815719,-121.4943996,California,"Sacramento, California",466488,1340
900,Salinas,CA,26,2,36.6604725,-121.684426752882,California,"Salinas, California",150441,1340
901,San Bernardino,CA,32,0,34.1083449,-117.2897652,California,"San Bernardino, California",209924,1340
902,San Bruno,CA,1,0,37.6230195,-122.428982086872,California,"San Bruno, California",41114,1340
903,San Diego,CA,24,5,32.7469869,-117.21177,California,"San Diego, California",1307402,1340
904,San Francisco,CA,32,3,37.7789601,-122.419199,California,"San Francisco, California",805235,1340
905,San Jacinto,CA,5,0,33.794793,-117.006396015464,California,"San Jacinto, California",44199,1340
906,San Jose,CA,24,4,37.3438502,-121.8831349,California,"San Jose, California",945942,1340
907,San Leandro,CA,3,0,37.704815,-122.167537362919,California,"San Leandro, California",84950,1340
909,San Marcos,CA,1,0,33.1433723,-117.1661449,California,"San Marcos, California",83781,1340
910,San Mateo,CA,1,0,37.5446217,-122.3091165,California,"San Mateo, California",97207,1340
911,San Pablo,CA,1,0,37.9650335,-122.346967124381,California,"San Pablo, California",29139,1340
913,San Ysidro,CA,1,0,32.5520013,-117.0430813,California,"San Ysidro, California",193,1340
914,Sanger,CA,1,0,36.708006,-119.5559652,California,"Sanger, California",24270,1340
915,Santa Ana,CA,8,2,33.7490525,-117.8620053,California,"Santa Ana, California",324528,1340
916,Santa Barbara,CA,2,0,34.3999755,-119.703022549307,California,"Santa Barbara, California",88410,1340
917,Santa Clarita,CA,1,1,34.3916641,-118.542586,California,"Santa Clarita, California",176320,1340
918,Santa Cruz,CA,4,1,36.97588665,-122.033772667443,California,"Santa Cruz, California",47420,1340
919,Santa Fe Springs,CA,1,0,33.9472359,-118.0853451,California,"Santa Fe Springs, California",16223,1340
920,Santa Maria,CA,1,0,34.9323829,-120.453793565393,California,"Santa Maria, California",99553,1340
921,Santa Monica,CA,6,2,34.008617,-118.494754033795,California,"Santa Monica, California",89736,1340
922,Santa Paula,CA,2,2,34.3554985,-119.064954691622,California,"Santa Paula, California",29321,1340
923,Santa Rosa,CA,4,0,38.367814,-122.76598019449,California,"Santa Rosa, California",167815,1340
924,Saratoga,CA,1,0,37.2661735,-122.025781637074,California,"Saratoga, California",29926,1340
925,Seaside,CA,1,0,36.62581365,-121.817032663508,California,"Seaside, California",33025,1340
926,Seven Oaks,CA,1,0,34.1863979,-116.914197,California,"Seven Oaks, California",111,1340
928,Simi Valley,CA,4,3,34.2657598,-118.731346417536,California,"Simi Valley, California",124237,1340
929,Skyline,CA,1,0,32.74169715,-116.95241405981,California,"Skyline, California",851,1340
930,Sonoma,CA,1,0,37.8761542,-122.238687263807,California,"Sonoma, California",10648,1340
931,South El Monte,CA,1,0,34.0488705,-118.045758102388,California,"South El Monte, California",20116,1340
932,South Gate,CA,3,0,33.93820895,-118.187815015393,California,"South Gate, California",94396,1340
933,South Lake Tahoe,CA,2,0,38.92880455,-119.987831498967,California,"South Lake Tahoe, California",21403,1340
934,Stanton,CA,2,1,33.7947696,-117.99507215753,California,"Stanton, California",38186,1340
935,Stockton,CA,20,2,37.9577016,-121.2907796,California,"Stockton, California",291707,1340
936,Suisun City,CA,2,0,38.2475585,-122.007411375716,California,"Suisun City, California",28111,1340
937,Sun Valley,CA,1,0,34.2175042,-118.3703576,California,"Sun Valley, California",1406,1340
938,Sunnyvale,CA,3,0,37.3688301,-122.0363496,California,"Sunnyvale, California",140081,1340
939,Temecula,CA,2,1,33.49358875,-117.117431506522,California,"Temecula, California",100097,1340
940,Templeton,CA,1,0,35.5606196,-120.700717473692,California,"Templeton, California",362,1340
941,Thornton,CA,1,0,38.2260268,-121.4246733,California,"Thornton, California",407,1340
943,Three Rivers,CA,2,0,36.420443,-118.880292633684,California,"Three Rivers, California",7811,1340
945,Torrance,CA,2,0,33.8358492,-118.3406288,California,"Torrance, California",145438,1340
946,Tulare,CA,5,0,35.6521754,-118.3224811,California,"Tulare, California",59278,1340
947,Tulare County,CA,2,0,36.26992445,-118.7962660625,California,"Tulare County, California",442179,1340
948,Turlock,CA,4,0,37.501842,-120.845998000566,California,"Turlock, California",68549,1340
949,Tustin,CA,1,0,33.7458511,-117.826166,California,"Tustin, California",75540,1340
950,Twentynine Palms,CA,1,0,34.16476,-116.036562499,California,"Twentynine Palms, California",25048,1340
951,Union City,CA,6,0,37.5907215,-122.017324013925,California,"Union City, California",69516,1340
952,Vacaville,CA,2,0,38.34234285,-121.90154500471,California,"Vacaville, California",92428,1340
954,Vallejo,CA,20,5,38.114559,-122.231476112523,California,"Vallejo, California",115942,1340
955,Valley Center,CA,1,1,33.2183701,-117.0341967,California,"Valley Center, California",6822,1340
957,Ventura,CA,5,0,34.270273,-119.242605355028,California,"Ventura, California",823318,1340
958,Ventura County,CA,2,0,34.240837,-118.6369332,California,"Ventura County, California",823318,1340
959,Victorville,CA,7,0,34.5406414,-117.341067557552,California,"Victorville, California",115903,1340
960,Visalia,CA,9,1,36.3302284,-119.2920585,California,"Visalia, California",124442,1340
961,Vista,CA,1,0,33.2000368,-117.2425355,California,"Vista, California",93834,1340
962,Walnut Creek,CA,1,0,37.894375,-122.036438810635,California,"Walnut Creek, California",64173,1340
963,Wasco,CA,2,0,35.5941238,-119.3409457,California,"Wasco, California",25545,1340
964,Waterford,CA,1,0,37.63976,-120.758464956439,California,"Waterford, California",8456,1340
965,Watsonville,CA,3,0,36.88707915,-121.785400164675,California,"Watsonville, California",51199,1340
966,Watts,CA,1,0,33.9405674,-118.2428485,California,"Watts, California",324,1340
967,Weed,CA,1,0,41.41327,-122.387635996861,California,"Weed, California",2967,1340
969,Westmont,CA,2,0,33.945206,-118.298403217178,California,"Westmont, California",24685,1340
970,Whittier,CA,8,1,34.0270245,-118.055008936061,California,"Whittier, California",220,1340
971,Willowbrook,CA,3,0,33.9169602,-118.2550726,California,"Willowbrook, California",8540,1340
972,Wilmington,CA,2,0,33.780018,-118.2625711,California,"Wilmington, California",70851,1340
973,Windsor,CA,1,0,38.532455,-122.760339585445,California,"Windsor, California",26801,1340
974,Winnetka,CA,1,0,34.2133375,-118.5720309,California,"Winnetka, California",12187,1340
975,Woodlake,CA,1,0,36.4110775,-119.093757762045,California,"Woodlake, California",7279,1340
976,Yorba Linda,CA,1,0,33.890981,-117.773014058691,California,"Yorba Linda, California",64234,1340
977,Yuba City,CA,2,0,39.1404477,-121.6169108,California,"Yuba City, California",64925,1340
978,Yuba County,CA,1,0,39.27887435,-121.438477528395,California,"Yuba County, California",72155,1340
979,Yucaipa,CA,2,0,34.0407185,-117.051676166367,California,"Yucaipa, California",51367,1340
980,Yucca Valley,CA,1,0,34.13471065,-116.413682243759,California,"Yucca Valley, California",20700,1340
981,Annapolis,CA,0,1,38.7218559,-123.3697306,California,"Annapolis, California",38394,1340
982,Chino,CA,0,1,34.0133561,-117.690075,California,"Chino, California",77983,1340
983,French Camp,CA,0,1,37.8764182,-121.271755995002,California,"French Camp, California",174,1340
984,Hanford,CA,0,1,36.2940205,-119.676475172905,California,"Hanford, California",53967,1340
988,Mad River,CA,0,1,40.4139261,-123.4730396,California,"Mad River, California",2821,1340
989,Montebello,CA,0,1,34.009457,-118.1053467,California,"Montebello, California",62500,1340
991,Paradise,CA,0,1,39.763452,-121.606789153044,California,"Paradise, California",26218,1340
992,Quincy,CA,0,1,39.9310755,-120.95349594037,California,"Quincy, California",7972,1340
993,Redwood City,CA,0,1,37.4852152,-122.2363548,California,"Redwood City, California",76815,1340
994,San Gabriel,CA,0,1,34.0938138,-118.097575695867,California,"San Gabriel, California",39718,1340
996,Taft,CA,0,1,35.125984,-119.411787865182,California,"Taft, California",9327,1340
998,Temple City,CA,0,1,34.1031775,-118.052829032497,California,"Temple City, California",35558,1340
999,Winters,CA,0,1,38.5249065,-121.9708017,California,"Winters, California",6624,1340
1001,Adams,PA,1,0,39.8708972,-77.2395963,Pennsylvania,"Adams, Pennsylvania",441603,510
1002,Allegheny Township,PA,1,0,40.4356765,-80.0041917933408,Pennsylvania,"Allegheny Township, Pennsylvania",6738,510
1003,Allentown,PA,9,1,40.6022032,-75.4716219,Pennsylvania,"Allentown, Pennsylvania",169,510
1004,Altoona,PA,3,0,40.518681,-78.394736,Pennsylvania,"Altoona, Pennsylvania",933,510
1007,Ashville,PA,2,2,40.5600684,-78.5486289,Pennsylvania,"Ashville, Pennsylvania",2212,510
1009,Barree,PA,2,0,40.5853461,-78.1005628,Pennsylvania,"Barree, Pennsylvania",469,510
1010,Beaver County,PA,1,1,40.6680585,-80.3341342359723,Pennsylvania,"Beaver County, Pennsylvania",5636,510
1011,Beaver Falls,PA,1,0,40.7520097,-80.3192295,Pennsylvania,"Beaver Falls, Pennsylvania",197,510
1013,Bessemer,PA,1,1,40.1281278,-79.5550387,Pennsylvania,"Bessemer, Pennsylvania",27456,510
1015,Bethlehem,PA,2,1,40.6178915,-75.3786521,Pennsylvania,"Bethlehem, Pennsylvania",3607,510
1016,Blair County,PA,3,1,40.4870748,-78.3682329,Pennsylvania,"Blair County, Pennsylvania",127089,510
1017,Bloomfield,PA,1,0,40.4179085,-77.1898027488888,Pennsylvania,"Bloomfield, Pennsylvania",20486,510
1018,Braddock,PA,1,0,40.4034024,-79.8683824,Pennsylvania,"Braddock, Pennsylvania",21,510
1019,Bucks County,PA,1,1,40.3285875,-75.1299237574973,Pennsylvania,"Bucks County, Pennsylvania",625249,510
1020,Caln,PA,1,0,39.9909398,-75.7802235,Pennsylvania,"Caln, Pennsylvania",13817,510
1021,Canton,PA,1,1,41.656464,-76.8532927,Pennsylvania,"Canton, Pennsylvania",10292,510
1022,Carlisle,PA,1,0,40.201824,-77.1893888,Pennsylvania,"Carlisle, Pennsylvania",2214,510
1025,Chambersburg,PA,2,1,39.9405903,-77.6598624,Pennsylvania,"Chambersburg, Pennsylvania",200,510
1026,Chanceford,PA,1,1,39.9725187,-76.7483657,Pennsylvania,"Chanceford, Pennsylvania",6111,510
1027,Cheltenham,PA,1,0,40.0609445,-75.0940625,Pennsylvania,"Cheltenham, Pennsylvania",36793,510
1028,Chester,PA,15,1,39.849557,-75.3557458,Pennsylvania,"Chester, Pennsylvania",159,510
1029,Clairton,PA,1,0,40.292292,-79.881715,Pennsylvania,"Clairton, Pennsylvania",6796,510
1030,Clymer,PA,1,0,40.6681213,-79.0116985,Pennsylvania,"Clymer, Pennsylvania",1698,510
1031,Columbia,PA,1,0,41.0389186,-76.4191791,Pennsylvania,"Columbia, Pennsylvania",740,510
1032,Conewago,PA,1,0,40.1581491,-76.660246,Pennsylvania,"Conewago, Pennsylvania",7085,510
1033,Danielsville,PA,1,1,40.7945388,-75.5271292,Pennsylvania,"Danielsville, Pennsylvania",560,510
1034,Darby,PA,1,0,39.9184461,-75.2590721,Pennsylvania,"Darby, Pennsylvania",720,510
1035,Duquesne,PA,2,0,40.3814581,-79.8597708,Pennsylvania,"Duquesne, Pennsylvania",1763,510
1037,East Fallowfield,PA,1,0,40.4111493,-80.0230862,Pennsylvania,"East Fallowfield, Pennsylvania",7449,510
1038,East Hills,PA,1,0,40.6584314,-75.3432351,Pennsylvania,"East Hills, Pennsylvania",6955,510
1039,East Huntingdon,PA,1,0,40.1444301,-79.582819,Pennsylvania,"East Huntingdon, Pennsylvania",7963,510
1041,Easton,PA,3,1,40.6916081,-75.2099866,Pennsylvania,"Easton, Pennsylvania",7490,510
1043,Erie,PA,3,0,42.129461,-80.085239,Pennsylvania,"Erie, Pennsylvania",18135,510
1045,Fairmount,PA,1,0,39.9522975,-75.190211,Pennsylvania,"Fairmount, Pennsylvania",720,510
1046,Fayette,PA,1,0,39.921022,-79.6663803,Pennsylvania,"Fayette, Pennsylvania",4619,510
1048,Forward,PA,1,0,40.1314667,-78.8647451,Pennsylvania,"Forward, Pennsylvania",80,510
1049,Frankford,PA,1,0,40.0281674,-75.084896,Pennsylvania,"Frankford, Pennsylvania",847,510
1050,Freeland,PA,1,1,41.0167508,-75.8971431,Pennsylvania,"Freeland, Pennsylvania",102,510
1051,Garfield,PA,1,0,40.46868,-79.9386628,Pennsylvania,"Garfield, Pennsylvania",502,510
1052,Germantown,PA,1,0,40.0434449,-75.1801775,Pennsylvania,"Germantown, Pennsylvania",1269,510
1053,Grantville,PA,1,1,40.377867,-76.6463566,Pennsylvania,"Grantville, Pennsylvania",3041,510
1054,Hampden,PA,1,0,40.215999,-76.997987,Pennsylvania,"Hampden, Pennsylvania",128,510
1055,Hanover,PA,1,0,39.8063247,-76.9842735,Pennsylvania,"Hanover, Pennsylvania",844,510
1056,Harrisburg,PA,15,2,40.2663107,-76.8861122,Pennsylvania,"Harrisburg, Pennsylvania",2288,510
1058,Hazelwood,PA,1,0,40.4131664,-79.9391633,Pennsylvania,"Hazelwood, Pennsylvania",25703,510
1059,Hazleton,PA,2,0,40.9646867,-75.9852789,Pennsylvania,"Hazleton, Pennsylvania",263,510
1060,Hempfield,PA,2,1,40.0548193,-76.4388523,Pennsylvania,"Hempfield, Pennsylvania",3741,510
1062,Hilltown,PA,1,0,40.3421681,-75.255433,Pennsylvania,"Hilltown, Pennsylvania",15029,510
1063,Homer City,PA,1,0,40.5434007,-79.1622566,Pennsylvania,"Homer City, Pennsylvania",5003,510
1064,Homestead,PA,3,0,40.4059025,-79.9119948,Pennsylvania,"Homestead, Pennsylvania",60512,510
1065,Homewood,PA,7,0,40.813953,-80.32923,Pennsylvania,"Homewood, Pennsylvania",25167,510
1066,Horton,PA,2,1,41.6050664,-77.8413829,Pennsylvania,"Horton, Pennsylvania",1776,510
1068,Huntingdon,PA,2,1,40.4847959,-78.0102813,Pennsylvania,"Huntingdon, Pennsylvania",45913,510
1069,Jefferson,PA,1,0,41.1125398,-79.0163349,Pennsylvania,"Jefferson, Pennsylvania",658466,510
1071,Johnstown,PA,3,0,40.3267407,-78.9219698,Pennsylvania,"Johnstown, Pennsylvania",9887,510
1072,Kennedy,PA,1,0,41.680071,-77.4283124,Pennsylvania,"Kennedy, Pennsylvania",447,510
1073,Kensington,PA,3,0,39.9859458,-75.1318429,Pennsylvania,"Kensington, Pennsylvania",473,510
1075,Lamar,PA,1,0,41.0161767,-77.5311034,Pennsylvania,"Lamar, Pennsylvania",14564,510
1076,Lancaster,PA,3,1,40.03997225,-76.3064177339532,Pennsylvania,"Lancaster, Pennsylvania",156633,510
1077,Lancaster County,PA,1,0,40.01846345,-76.2336528466464,Pennsylvania,"Lancaster County, Pennsylvania",285407,510
1078,Larimer,PA,2,0,40.4625688,-79.9083841,Pennsylvania,"Larimer, Pennsylvania",299630,510
1079,Latrobe,PA,1,0,40.3211808,-79.3794811,Pennsylvania,"Latrobe, Pennsylvania",8338,510
1080,Lebanon,PA,2,1,40.3465499,-76.4283812,Pennsylvania,"Lebanon, Pennsylvania",7308,510
1081,Lehman,PA,2,0,41.3170249,-76.0224235,Pennsylvania,"Lehman, Pennsylvania",3508,510
1084,Lower Paxton,PA,1,0,40.3187547,-76.7862453,Pennsylvania,"Lower Paxton, Pennsylvania",47360,510
1085,Lower Pottsgrove,PA,1,0,40.2509313,-75.5929597,Pennsylvania,"Lower Pottsgrove, Pennsylvania",12059,510
1087,Malvern,PA,1,0,40.036202,-75.5138959,Pennsylvania,"Malvern, Pennsylvania",1448,510
1088,Manchester,PA,1,1,40.0595131,-76.7229552,Pennsylvania,"Manchester, Pennsylvania",58241,510
1089,Manheim,PA,1,0,40.1637359,-76.3952429,Pennsylvania,"Manheim, Pennsylvania",3334,510
1092,McKeesport,PA,4,1,40.3478472,-79.864215,Pennsylvania,"McKeesport, Pennsylvania",19731,510
1093,Mckeesport,PA,1,0,40.3478472,-79.864215,Pennsylvania,"Mckeesport, Pennsylvania",19731,510
1094,Mercer County,PA,1,0,41.3334542,-80.3014412,Pennsylvania,"Mercer County, Pennsylvania",16434,510
1095,Middle Paxton,PA,1,0,40.3046694,-76.8182032,Pennsylvania,"Middle Paxton, Pennsylvania",4976,510
1097,Monroeville,PA,2,0,40.4211798,-79.7881025,Pennsylvania,"Monroeville, Pennsylvania",6519,510
1099,Morrisville,PA,1,0,40.2114978,-74.7879399,Pennsylvania,"Morrisville, Pennsylvania",388,510
1103,Nether Providence,PA,1,1,39.878245,-75.376656,Pennsylvania,"Nether Providence, Pennsylvania",13706,510
1104,New Castle,PA,2,1,41.0036719,-80.3470091,Pennsylvania,"New Castle, Pennsylvania",4518,510
1108,North Union,PA,1,0,43.0686883,-77.7968023,Pennsylvania,"North Union, Pennsylvania",12728,510
1109,North Versailles,PA,1,1,40.3797913,-79.8094916,Pennsylvania,"North Versailles, Pennsylvania",10229,510
1110,Olney,PA,3,0,40.0412227,-75.1237863,Pennsylvania,"Olney, Pennsylvania",9115,510
1111,Overbrook,PA,1,0,40.3842203,-79.9961442,Pennsylvania,"Overbrook, Pennsylvania",1058,510
1113,Penn Hills,PA,4,0,40.4729398,-79.8176723,Pennsylvania,"Penn Hills, Pennsylvania",42329,510
1114,Philadelphia,PA,189,11,39.952335,-75.163789,Pennsylvania,"Philadelphia, Pennsylvania",221,510
1115,Philipsburg,PA,1,1,40.0617403,-79.881158,Pennsylvania,"Philipsburg, Pennsylvania",820,510
1116,Pittsburg,PA,1,0,37.777164,-88.848726,Pennsylvania,"Pittsburg, Pennsylvania",63264,510
1117,Pittsburgh,PA,24,6,40.4416941,-79.9900861,Pennsylvania,"Pittsburgh, Pennsylvania",305704,510
1120,Pottsville,PA,1,0,40.6859385,-76.1949411,Pennsylvania,"Pottsville, Pennsylvania",2838,510
1121,Rankin,PA,1,1,40.412569,-79.8792161,Pennsylvania,"Rankin, Pennsylvania",561,510
1122,Reading,PA,7,0,40.3364587,-75.9288612,Pennsylvania,"Reading, Pennsylvania",2046,510
1123,Ross Township,PA,3,0,40.520623,-80.0050243038564,Pennsylvania,"Ross Township, Pennsylvania",1594,510
1126,Scranton,PA,1,0,41.408969,-75.6624122,Pennsylvania,"Scranton, Pennsylvania",224,510
1127,Sewickley,PA,1,0,40.5364566,-80.1845031,Pennsylvania,"Sewickley, Pennsylvania",5996,510
1128,Shaler,PA,1,1,40.161289,-80.486165,Pennsylvania,"Shaler, Pennsylvania",28757,510
1129,Sharon,PA,1,0,41.2331116,-80.4934035,Pennsylvania,"Sharon, Pennsylvania",2782,510
1131,Shippensburg,PA,1,0,40.0562262,-77.5139074,Pennsylvania,"Shippensburg, Pennsylvania",5429,510
1132,Somerset County,PA,1,1,40.0035466,-79.0425390015899,Pennsylvania,"Somerset County, Pennsylvania",52228,510
1133,South Abington,PA,1,1,40.1206656,-75.1179512,Pennsylvania,"South Abington, Pennsylvania",9073,510
1134,South Huntingdon,PA,1,0,39.997146,-78.241966,Pennsylvania,"South Huntingdon, Pennsylvania",5796,510
1135,South Londonderry,PA,1,0,40.2403764,-76.5372625,Pennsylvania,"South Londonderry, Pennsylvania",6991,510
1136,South Strabane,PA,1,0,40.1384049,-80.163391,Pennsylvania,"South Strabane, Pennsylvania",9346,510
1137,Springettsbury,PA,1,0,39.9949864,-76.675922,Pennsylvania,"Springettsbury, Pennsylvania",26668,510
1139,Summit,PA,1,0,39.968421,-78.0227807,Pennsylvania,"Summit, Pennsylvania",604,510
1142,Texas,PA,1,0,41.5350719,-77.2527545,Pennsylvania,"Texas, Pennsylvania",1246,510
1143,Torrance,PA,1,0,40.4172913,-79.2228123,Pennsylvania,"Torrance, Pennsylvania",145438,510
1144,Uniontown,PA,3,0,39.900076,-79.7164326,Pennsylvania,"Uniontown, Pennsylvania",1775,510
1145,Upper Chichester,PA,1,0,39.8571,-75.4592,Pennsylvania,"Upper Chichester, Pennsylvania",16738,510
1146,Upper Darby,PA,2,1,39.9284459,-75.2737955,Pennsylvania,"Upper Darby, Pennsylvania",82795,510
1147,Warwick,PA,1,0,40.1623168,-76.3069013,Pennsylvania,"Warwick, Pennsylvania",423,510
1148,Washington,PA,4,1,40.17396,-80.2461714,Pennsylvania,"Washington, Pennsylvania",17581,510
1149,Washington County,PA,1,0,40.2167415,-80.2389846065416,Pennsylvania,"Washington County, Pennsylvania",17581,510
1151,West Chester,PA,1,0,39.960185,-75.6054709977898,Pennsylvania,"West Chester, Pennsylvania",146,510
1152,West Manheim Township,PA,1,0,40.1637359,-76.3952429,Pennsylvania,"West Manheim Township, Pennsylvania",7744,510
1154,Westfield,PA,1,1,41.9192368,-77.5388744,Pennsylvania,"Westfield, Pennsylvania",601,510
1155,Wilkes-Barre,PA,10,2,41.2464824,-75.8817316,Pennsylvania,"Wilkes-Barre, Pennsylvania",41498,510
1156,Williamsport,PA,4,0,41.2493292,-77.0027671,Pennsylvania,"Williamsport, Pennsylvania",1898,510
1157,Williamstown,PA,1,0,40.5800868,-76.617742,Pennsylvania,"Williamstown, Pennsylvania",3925,510
1158,York,PA,8,1,39.962398,-76.727392,Pennsylvania,"York, Pennsylvania",2538,510
1159,York City,PA,3,0,39.9543252,-76.7100642,Pennsylvania,"York City, Pennsylvania",2538,510
1160,Aliquippa,PA,0,1,40.618174,-80.2510131448239,Pennsylvania,"Aliquippa, Pennsylvania",9438,510
1161,Coatesville,PA,0,1,39.9831616,-75.8238355,Pennsylvania,"Coatesville, Pennsylvania",523,510
1162,Connellsville,PA,0,1,40.0178522,-79.5894828,Pennsylvania,"Connellsville, Pennsylvania",7637,510
1164,Holly Hill,PA,0,1,40.1626096,-74.838775,Pennsylvania,"Holly Hill, Pennsylvania",11659,510
1165,Lower Macungie,PA,0,1,40.543813,-75.5319152,Pennsylvania,"Lower Macungie, Pennsylvania",30633,510
1167,Muhlenberg,PA,0,1,40.3831486,-75.9388201,Pennsylvania,"Muhlenberg, Pennsylvania",31499,510
1168,Oil City,PA,0,1,41.4339484,-79.7064413,Pennsylvania,"Oil City, Pennsylvania",1008,510
1169,Phillipsburg,PA,0,1,40.6933994,-80.2820062,Pennsylvania,"Phillipsburg, Pennsylvania",2581,510
1170,Simpson,PA,0,1,41.8367297,-78.5880801,Pennsylvania,"Simpson, Pennsylvania",60,510
1172,Warminster,PA,0,1,40.2067751,-75.0996159,Pennsylvania,"Warminster, Pennsylvania",32682,510
1173,Acworth,GA,2,1,34.0659329,-84.6768796,Georgia,"Acworth, Georgia",20425,382
1174,Adairsville,GA,1,1,34.3687021,-84.9341093,Georgia,"Adairsville, Georgia",4648,382
1175,Aiken County,GA,1,0,33.6005783,-81.6035062,Georgia,"Aiken County, Georgia",160099,382
1176,Albany,GA,5,0,31.5785074,-84.155741,Georgia,"Albany, Georgia",18539,382
1177,Alpharetta,GA,2,0,34.0709576,-84.2747329,Georgia,"Alpharetta, Georgia",57551,382
1178,Athens,GA,1,0,33.9595974,-83.376678,Georgia,"Athens, Georgia",21897,382
1179,Atlanta,GA,60,6,33.7490987,-84.3901849,Georgia,"Atlanta, Georgia",420003,382
1180,Augusta,GA,12,3,33.4709714,-81.9748429,Georgia,"Augusta, Georgia",2199,382
1181,Austell,GA,2,1,33.8126059,-84.6343783,Georgia,"Austell, Georgia",6581,382
1182,Baker County,GA,1,0,31.2638035,-84.49868355963181,Georgia,"Baker County, Georgia",27115,382
1183,Baxley,GA,1,0,31.7782514,-82.3484618,Georgia,"Baxley, Georgia",4400,382
1184,Bethlehem,GA,1,1,34.9020296,-84.0774118,Georgia,"Bethlehem, Georgia",3607,382
1185,Bibb County,GA,1,0,32.8071935,-83.68659779666301,Georgia,"Bibb County, Georgia",22915,382
1186,Blairsville,GA,1,2,34.8761989,-83.9582412,Georgia,"Blairsville, Georgia",652,382
1188,Brunswick,GA,3,0,31.1499528,-81.4914894,Georgia,"Brunswick, Georgia",15383,382
1189,Buford,GA,1,2,34.1206564,-84.0043513,Georgia,"Buford, Georgia",12225,382
1190,Cairo,GA,3,0,30.8774132,-84.2012897,Georgia,"Cairo, Georgia",9607,382
1191,Calhoun,GA,1,0,31.5040637,-84.4534229,Georgia,"Calhoun, Georgia",118572,382
1192,Canton,GA,2,0,34.2367621,-84.4907621,Georgia,"Canton, Georgia",10292,382
1193,Carnesville,GA,1,0,34.3698266,-83.235155,Georgia,"Carnesville, Georgia",577,382
1194,Cartersville,GA,2,0,34.180855,-84.7529170994188,Georgia,"Cartersville, Georgia",19731,382
1195,Cascade,GA,1,0,34.906322,-85.205915,Georgia,"Cascade, Georgia",939,382
1196,Catoosa County,GA,1,0,34.8776399,-85.1445279220676,Georgia,"Catoosa County, Georgia",63942,382
1197,Cedartown,GA,1,0,34.018554,-85.25593920522499,Georgia,"Cedartown, Georgia",9750,382
1198,Cherokee County,GA,2,0,34.2428725,-84.45619375495231,Georgia,"Cherokee County, Georgia",25989,382
1199,Chickamauga,GA,1,0,34.871188,-85.2907896,Georgia,"Chickamauga, Georgia",3101,382
1200,Clarkesville,GA,1,0,34.6125971,-83.5248933,Georgia,"Clarkesville, Georgia",1733,382
1201,Claxton,GA,1,0,32.1615815,-81.9040047,Georgia,"Claxton, Georgia",2746,382
1202,Clayton County,GA,9,2,33.4362245,-84.3142675,Georgia,"Clayton County, Georgia",259424,382
1203,Cobb,GA,1,1,33.9373948,-84.5732006,Georgia,"Cobb, Georgia",688078,382
1204,Cobb County,GA,2,1,33.915655,-84.581456285374,Georgia,"Cobb County, Georgia",688078,382
1206,College Park,GA,3,0,33.6534427,-84.4493725,Georgia,"College Park, Georgia",13942,382
1207,Columbus,GA,15,5,32.4609764,-84.9877094,Georgia,"Columbus, Georgia",189885,382
1208,Conley,GA,1,0,33.6358095,-84.3294395574209,Georgia,"Conley, Georgia",64,382
1209,Covington,GA,2,0,33.5967815,-83.8601827,Georgia,"Covington, Georgia",37765,382
1210,Coweta County,GA,1,0,33.351366,-84.779898802719,Georgia,"Coweta County, Georgia",127317,382
1211,Crawford County,GA,1,0,32.695324,-83.9684883309027,Georgia,"Crawford County, Georgia",61948,382
1212,Dacula,GA,1,1,33.9887165,-83.8979573,Georgia,"Dacula, Georgia",4442,382
1213,Dallas,GA,1,0,33.917713,-84.8573906297509,Georgia,"Dallas, Georgia",43820,382
1214,Dalton,GA,1,0,34.723883,-84.86855458466461,Georgia,"Dalton, Georgia",33128,382
1215,DeKalb,GA,2,1,34.9711865,-85.279123,Georgia,"DeKalb, Georgia",71109,382
1216,DeKalb County,GA,8,2,33.79274945,-84.2201537167311,Georgia,"DeKalb County, Georgia",71109,382
1217,Decatur,GA,4,0,33.7737582,-84.296069,Georgia,"Decatur, Georgia",55683,382
1218,Dekalb County,GA,3,0,33.79274945,-84.2201537167311,Georgia,"Dekalb County, Georgia",71109,382
1219,Donalsonville,GA,1,1,31.0404625,-84.8790911,Georgia,"Donalsonville, Georgia",2650,382
1220,East Point,GA,4,2,33.6795531,-84.4393724,Georgia,"East Point, Georgia",33712,382
1221,Elbert County,GA,1,0,34.1106692,-82.6953123,Georgia,"Elbert County, Georgia",23086,382
1222,Emerson,GA,1,0,30.7760298,-83.631827,Georgia,"Emerson, Georgia",368,382
1223,Fayetteville,GA,1,0,33.4487257,-84.4549262,Georgia,"Fayetteville, Georgia",73580,382
1224,Fitzgerald,GA,1,1,31.7149082,-83.2526545,Georgia,"Fitzgerald, Georgia",9053,382
1225,Flowery Branch,GA,1,0,34.1851017,-83.9251809,Georgia,"Flowery Branch, Georgia",5679,382
1226,Forest Park,GA,1,0,33.6220542,-84.3690918,Georgia,"Forest Park, Georgia",18468,382
1227,Forsyth,GA,2,0,34.2484331,-83.9748056,Georgia,"Forsyth, Georgia",3788,382
1228,Fulton County,GA,5,1,33.844221,-84.4035319457118,Georgia,"Fulton County, Georgia",12245,382
1229,Gainesville,GA,3,1,34.2435175,-83.827866021914,Georgia,"Gainesville, Georgia",208,382
1230,Glenwood,GA,1,0,33.9292825,-83.4026591,Georgia,"Glenwood, Georgia",187,382
1231,Griffin,GA,3,0,33.2467807,-84.2640904,Georgia,"Griffin, Georgia",23643,382
1232,Grovetown,GA,1,0,33.4504157,-82.1981764,Georgia,"Grovetown, Georgia",11216,382
1233,Gwinnett,GA,3,1,33.9190653,-84.0167423,Georgia,"Gwinnett, Georgia",805321,382
1234,Gwinnett County,GA,4,1,33.95775315,-84.0424256042861,Georgia,"Gwinnett County, Georgia",805321,382
1235,Hahira,GA,1,0,30.9913064,-83.3726575,Georgia,"Hahira, Georgia",2737,382
1236,Hapeville,GA,2,0,33.660109,-84.4102046,Georgia,"Hapeville, Georgia",6373,382
1237,Hawkinsville,GA,1,1,32.2837731,-83.4721177,Georgia,"Hawkinsville, Georgia",4589,382
1238,Henry County,GA,2,0,33.472561,-84.1196689149248,Georgia,"Henry County, Georgia",17302,382
1239,Homerville,GA,1,0,31.0365983,-82.7470849,Georgia,"Homerville, Georgia",2456,382
1240,Houston County,GA,2,0,32.487669,-83.6449357626543,Georgia,"Houston County, Georgia",101547,382
1241,Jefferson,GA,1,1,32.9140428,-82.3089137,Georgia,"Jefferson, Georgia",658466,382
1242,Jones County,GA,1,0,33.013691,-83.557547168413,Georgia,"Jones County, Georgia",28669,382
1243,Jonesboro,GA,1,0,33.5215013,-84.3538128,Georgia,"Jonesboro, Georgia",67263,382
1244,LaFayette,GA,1,0,34.7048022,-85.2818998,Georgia,"LaFayette, Georgia",7645,382
1245,Lagrange,GA,1,0,33.036685,-85.0328815195532,Georgia,"Lagrange, Georgia",89,382
1246,Lanier County,GA,1,0,31.017897,-83.078731246425,Georgia,"Lanier County, Georgia",10078,382
1247,Laurens County,GA,1,1,32.431744,-82.92306079712449,Georgia,"Laurens County, Georgia",48434,382
1248,Leesburg,GA,1,0,32.5362511,-84.8957642,Georgia,"Leesburg, Georgia",1027,382
1249,Lilburn,GA,2,0,33.8901036,-84.1429719,Georgia,"Lilburn, Georgia",11596,382
1250,Lincoln County,GA,1,0,33.8108325,-82.45033516423459,Georgia,"Lincoln County, Georgia",14134,382
1251,Lithonia,GA,3,0,33.7123305,-84.1051939,Georgia,"Lithonia, Georgia",1924,382
1252,Louisville,GA,1,0,33.0015407,-82.4112377,Georgia,"Louisville, Georgia",519,382
1253,Macon,GA,8,2,32.8406946,-83.6324022,Georgia,"Macon, Georgia",21452,382
1254,Marietta,GA,5,5,33.952602,-84.5499327,Georgia,"Marietta, Georgia",56579,382
1255,McDonough,GA,2,0,33.4473361,-84.1468616,Georgia,"McDonough, Georgia",22084,382
1256,Milledgeville,GA,2,1,33.0801429,-83.2320991,Georgia,"Milledgeville, Georgia",17715,382
1257,Milton,GA,1,0,34.1321631,-84.300666,Georgia,"Milton, Georgia",2576,382
1258,Moultrie,GA,3,0,31.1811523,-83.7878809,Georgia,"Moultrie, Georgia",14268,382
1259,Norcross,GA,4,0,33.9412127,-84.2135309,Georgia,"Norcross, Georgia",9116,382
1260,Paulding County,GA,1,0,33.928394,-84.88663163883379,Georgia,"Paulding County, Georgia",142324,382
1261,Perry,GA,1,1,32.4586695,-83.7319658,Georgia,"Perry, Georgia",10591,382
1262,Pickens County,GA,1,0,34.4685,-84.486529084074,Georgia,"Pickens County, Georgia",19746,382
1263,Pike County,GA,1,0,33.0885545,-84.38285753596391,Georgia,"Pike County, Georgia",32899,382
1264,Pooler,GA,1,0,32.114441,-81.2197075172913,Georgia,"Pooler, Georgia",19140,382
1265,Quitman,GA,1,0,31.7943293,-84.9462146,Georgia,"Quitman, Georgia",762,382
1266,Richmond County,GA,2,0,33.277089,-81.8944597,Georgia,"Richmond County, Georgia",200549,382
1267,Richmond Hill,GA,1,1,31.9382652,-81.3034433,Georgia,"Richmond Hill, Georgia",9281,382
1268,Rincon,GA,1,0,32.2960289,-81.2353905,Georgia,"Rincon, Georgia",8836,382
1269,Ringgold,GA,1,0,34.91591,-85.1091173,Georgia,"Ringgold, Georgia",3580,382
1270,Riverdale,GA,1,1,33.5726113,-84.4132594,Georgia,"Riverdale, Georgia",15134,382
1271,Roberta,GA,1,0,32.7219973,-84.0130926,Georgia,"Roberta, Georgia",1007,382
1272,Rockdale County,GA,1,0,33.6564028,-84.01174753394301,Georgia,"Rockdale County, Georgia",85215,382
1273,Rockmart,GA,1,0,34.0026005,-85.0416133,Georgia,"Rockmart, Georgia",4199,382
1274,Sandy Springs,GA,3,2,33.878567,-84.4433181363636,Georgia,"Sandy Springs, Georgia",93853,382
1275,Sardis,GA,1,0,32.975157,-81.757613,Georgia,"Sardis, Georgia",999,382
1276,Savannah,GA,16,3,32.017073,-81.2906160076233,Georgia,"Savannah, Georgia",136286,382
1277,Smyrna,GA,2,1,33.8839926,-84.5143761,Georgia,"Smyrna, Georgia",10023,382
1278,Snellville,GA,1,0,33.857328,-84.0199108,Georgia,"Snellville, Georgia",18242,382
1280,Statesboro,GA,1,0,32.420648,-81.775859,Georgia,"Statesboro, Georgia",28422,382
1281,Stockbridge,GA,2,0,33.5442781,-84.2338093,Georgia,"Stockbridge, Georgia",25636,382
1282,Stone Mountain,GA,1,0,33.8081083,-84.1701957,Georgia,"Stone Mountain, Georgia",5802,382
1283,Taylor County,GA,1,0,32.559534,-84.2450614621884,Georgia,"Taylor County, Georgia",22570,382
1284,Thomasville,GA,1,0,30.8365815,-83.9787808,Georgia,"Thomasville, Georgia",4209,382
1285,Thunderbolt,GA,1,1,32.0335445,-81.0498342,Georgia,"Thunderbolt, Georgia",2668,382
1286,Tifton,GA,2,0,31.471498,-83.48387498085661,Georgia,"Tifton, Georgia",16350,382
1287,Toccoa,GA,1,3,34.5773206,-83.3323851,Georgia,"Toccoa, Georgia",8491,382
1288,Valdosta,GA,1,0,30.8327022,-83.2784851,Georgia,"Valdosta, Georgia",54518,382
1289,Villa Rica,GA,2,0,33.732052,-84.9191081,Georgia,"Villa Rica, Georgia",13956,382
1290,Walker County,GA,1,0,34.7857337,-85.3266762877657,Georgia,"Walker County, Georgia",67023,382
1291,Warner Robins,GA,6,0,32.57958945,-83.66805713140579,Georgia,"Warner Robins, Georgia",66588,382
1292,Waycross,GA,3,0,31.2135511,-82.3540178,Georgia,"Waycross, Georgia",14649,382
1293,Winder,GA,1,0,33.991042,-83.7183730117372,Georgia,"Winder, Georgia",14099,382
1294,Woodstock,GA,2,0,34.1014873,-84.5193754,Georgia,"Woodstock, Georgia",1428,382
1295,Ashburn,GA,0,1,31.7060134,-83.653224,Georgia,"Ashburn, Georgia",4152,382
1296,Dawson,GA,0,1,34.4142624,-84.019254,Georgia,"Dawson, Georgia",4540,382
1298,Hinesville,GA,0,1,31.846877,-81.5959453,Georgia,"Hinesville, Georgia",33437,382
1299,Lawrenceville,GA,0,1,33.9562149,-83.9879625,Georgia,"Lawrenceville, Georgia",28546,382
1300,Newnan,GA,0,1,33.3806716,-84.7996573,Georgia,"Newnan, Georgia",33039,382
1301,Union City,GA,0,1,33.5870558,-84.5424299,Georgia,"Union City, Georgia",69516,382
1302,Woodbury,GA,0,1,32.9837394,-84.5827031,Georgia,"Woodbury, Georgia",9975,382
1303,Adams County,CO,3,1,39.8714085,-104.2701374,Colorado,"Adams County, Colorado",441603,136
1304,Alamosa,CO,2,0,37.467443,-105.86829610206,Colorado,"Alamosa, Colorado",8780,136
1305,Aspen,CO,1,1,39.1984225,-106.840617433827,Colorado,"Aspen, Colorado",6658,136
1306,Aurora,CO,10,3,39.565936,-104.744371275362,Colorado,"Aurora, Colorado",325078,136
1307,Boulder,CO,3,0,40.0149856,-105.2705456,Colorado,"Boulder, Colorado",97385,136
1308,Cedaredge,CO,1,0,38.9016487,-107.926454,Colorado,"Cedaredge, Colorado",2253,136
1309,Clifton,CO,1,0,39.080548,-108.479504,Colorado,"Clifton, Colorado",3311,136
1310,Colorado Springs,CO,22,4,38.8338816,-104.8213634,Colorado,"Colorado Springs, Colorado",416427,136
